[
  {
    "city": "LONDON",
    "greaterCityLocator": "EC4A",
    "latitude": "51.516883",
    "longitude": "-0.150843",
    "postCodes": null,
    "salesRepEmail": "jeremy.domantay@hyperoptic.com",
    "salesRepId": 68249,
    "salesRepName": "Jeremy Domantay",
    "salesRepPhone": "+44 7931 542 348",
    "siteId": 4,
    "siteName": "Clifford's Inn",
    "status": "Taking orders",
    "statusId": 0,
    "underConstruction": false
  },
  {
    "city": "LONDON",
    "greaterCityLocator": "E3",
    "latitude": "51.541562",
    "longitude": "-0.021524",
    "postCodes": null,
    "salesRepEmail": "dan.fuller@hyperoptic.com",
    "salesRepId": 65221,
    "salesRepName": "Dan Fuller",
    "salesRepPhone": "+44 7825 755 220",
    "siteId": 27,
    "siteName": "Omega Works",
    "status": "Taking orders",
    "statusId": 0,
    "underConstruction": false
  },
  {
    "city": "LONDON",
    "greaterCityLocator": "E15",
    "latitude": "51.536045",
    "longitude": "-0.007416",
    "postCodes": null,
    "salesRepEmail": "dan.fuller@hyperoptic.com",
    "salesRepId": 65221,
    "salesRepName": "Dan Fuller",
    "salesRepPhone": "+44 7825 755 220",
    "siteId": 39,
    "siteName": "Stratford Halo",
    "status": "Taking orders",
    "statusId": 0,
    "underConstruction": false
  },
  {
    "city": "LONDON",
    "greaterCityLocator": "E8",
    "latitude": "51.54605",
    "longitude": "-0.073958",
    "postCodes": null,
    "salesRepEmail": "dan.fuller@hyperoptic.com",
    "salesRepId": 65221,
    "salesRepName": "Dan Fuller",
    "salesRepPhone": "+44 7825 755 220",
    "siteId": 63,
    "siteName": "Dalston Square",
    "status": "Taking orders",
    "statusId": 0,
    "underConstruction": false
  },
  {
    "city": "LONDON",
    "greaterCityLocator": "W2",
    "latitude": "51.517569",
    "longitude": "-0.167578",
    "postCodes": null,
    "salesRepEmail": "david.lewis@hyperoptic.com",
    "salesRepId": 24396,
    "salesRepName": "Dave Lewis",
    "salesRepPhone": "+44 7728 819 657",
    "siteId": 99,
    "siteName": "The Water Gardens",
    "status": "Taking orders",
    "statusId": 0,
    "underConstruction": false
  },
  {
    "city": "LONDON",
    "greaterCityLocator": "W2",
    "latitude": "51.519794",
    "longitude": "-0.179972",
    "postCodes": null,
    "salesRepEmail": "mark.farndale@hyperoptic.com",
    "salesRepId": 184084,
    "salesRepName": "Mark Farndale",
    "salesRepPhone": null,
    "siteId": 111,
    "siteName": "Paddington Central",
    "status": "Taking orders",
    "statusId": 0,
    "underConstruction": false
  },
  {
    "city": "LONDON",
    "greaterCityLocator": "W9",
    "latitude": "51.52296",
    "longitude": "-0.195745",
    "postCodes": null,
    "salesRepEmail": "jeremy.domantay@hyperoptic.com",
    "salesRepId": 68249,
    "salesRepName": "Jeremy Domantay",
    "salesRepPhone": "+44 7931 542 348",
    "siteId": 115,
    "siteName": "Carlton Gate",
    "status": "Taking orders",
    "statusId": 0,
    "underConstruction": false
  },
  {
    "city": "LONDON",
    "greaterCityLocator": "W2",
    "latitude": "51.516097",
    "longitude": "-0.170059",
    "postCodes": null,
    "salesRepEmail": "david.lewis@hyperoptic.com",
    "salesRepId": 24396,
    "salesRepName": "Dave Lewis",
    "salesRepPhone": "+44 7728 819 657",
    "siteId": 117,
    "siteName": "Devonport",
    "status": "Taking orders",
    "statusId": 0,
    "underConstruction": false
  },
  {
    "city": "LONDON",
    "greaterCityLocator": "W3",
    "latitude": "51.523011",
    "longitude": "-0.261043",
    "postCodes": null,
    "salesRepEmail": "david.lewis@hyperoptic.com",
    "salesRepId": 24396,
    "salesRepName": "Dave Lewis",
    "salesRepPhone": "+44 7728 819 657",
    "siteId": 127,
    "siteName": "Trentham & Poulton & Ebbett Courts",
    "status": "Taking orders",
    "statusId": 0,
    "underConstruction": false
  },
  {
    "city": "LONDON",
    "greaterCityLocator": "N5",
    "latitude": "51.558367",
    "longitude": "-0.103603",
    "postCodes": null,
    "salesRepEmail": "sam.smith@hyperoptic.com",
    "salesRepId": 177307,
    "salesRepName": "Sam Smith",
    "salesRepPhone": "+44 7931 336 669",
    "siteId": 137,
    "siteName": "Highbury Stadium Square",
    "status": "Taking orders",
    "statusId": 0,
    "underConstruction": false
  },
  {
    "city": "LONDON",
    "greaterCityLocator": "NW8",
    "latitude": "51.527952",
    "longitude": "-0.174903",
    "postCodes": null,
    "salesRepEmail": "sam.smith@hyperoptic.com",
    "salesRepId": 177307,
    "salesRepName": "Sam Smith",
    "salesRepPhone": "+44 7931 336 669",
    "siteId": 139,
    "siteName": "Grove End House",
    "status": "Taking orders",
    "statusId": 0,
    "underConstruction": false
  },
  {
    "city": "LONDON",
    "greaterCityLocator": "NW8",
    "latitude": "51.540376",
    "longitude": "-0.173498",
    "postCodes": null,
    "salesRepEmail": "sam.smith@hyperoptic.com",
    "salesRepId": 177307,
    "salesRepName": "Sam Smith",
    "salesRepPhone": "+44 7931 336 669",
    "siteId": 149,
    "siteName": "Queensmead",
    "status": "Taking orders",
    "statusId": 0,
    "underConstruction": false
  },
  {
    "city": "LONDON",
    "greaterCityLocator": "N1",
    "latitude": "51.540878",
    "longitude": "-0.121015",
    "postCodes": null,
    "salesRepEmail": "dan.fuller@hyperoptic.com",
    "salesRepId": 65221,
    "salesRepName": "Dan Fuller",
    "salesRepPhone": "+44 7825 755 220",
    "siteId": 231,
    "siteName": "St Williams Court",
    "status": "Taking orders",
    "statusId": 0,
    "underConstruction": false
  },
  {
    "city": "LONDON",
    "greaterCityLocator": "NW8",
    "latitude": "51.530522",
    "longitude": "-0.177655",
    "postCodes": null,
    "salesRepEmail": "sam.smith@hyperoptic.com",
    "salesRepId": 177307,
    "salesRepName": "Sam Smith",
    "salesRepPhone": "+44 7931 336 669",
    "siteId": 269,
    "siteName": "Grove Hall Court",
    "status": "Taking orders",
    "statusId": 0,
    "underConstruction": false
  },
  {
    "city": "LONDON",
    "greaterCityLocator": "E9",
    "latitude": "51.552233",
    "longitude": "-0.03149",
    "postCodes": null,
    "salesRepEmail": "shay.gujral@hyperoptic.com",
    "salesRepId": 71496,
    "salesRepName": "Shay Gujral",
    "salesRepPhone": null,
    "siteId": 295,
    "siteName": "Matchmakers Wharf",
    "status": "Taking orders",
    "statusId": 0,
    "underConstruction": false
  },
  {
    "city": "LONDON",
    "greaterCityLocator": "W1H",
    "latitude": "51.516452",
    "longitude": "-0.156021",
    "postCodes": null,
    "salesRepEmail": "sam.smith@hyperoptic.com",
    "salesRepId": 177307,
    "salesRepName": "Sam Smith",
    "salesRepPhone": "+44 7931 336 669",
    "siteId": 297,
    "siteName": "15 Portman Square",
    "status": "Taking orders",
    "statusId": 0,
    "underConstruction": false
  },
  {
    "city": "LONDON",
    "greaterCityLocator": "NW1",
    "latitude": "51.530166",
    "longitude": "-0.125406",
    "postCodes": null,
    "salesRepEmail": "david.lewis@hyperoptic.com",
    "salesRepId": 24396,
    "salesRepName": "Dave Lewis",
    "salesRepPhone": "+44 7728 819 657",
    "siteId": 315,
    "siteName": "St Pancras Chambers",
    "status": "Taking orders",
    "statusId": 0,
    "underConstruction": false
  },
  {
    "city": "LONDON",
    "greaterCityLocator": "E15",
    "latitude": "51.536085",
    "longitude": "-0.001358",
    "postCodes": null,
    "salesRepEmail": "dan.fuller@hyperoptic.com",
    "salesRepId": 65221,
    "salesRepName": "Dan Fuller",
    "salesRepPhone": "+44 7825 755 220",
    "siteId": 379,
    "siteName": "Hallings Wharf",
    "status": "Taking orders",
    "statusId": 0,
    "underConstruction": false
  },
  {
    "city": "LONDON",
    "greaterCityLocator": "NW8",
    "latitude": "51.531332",
    "longitude": "-0.17595",
    "postCodes": null,
    "salesRepEmail": "sam.smith@hyperoptic.com",
    "salesRepId": 177307,
    "salesRepName": "Sam Smith",
    "salesRepPhone": "+44 7931 336 669",
    "siteId": 435,
    "siteName": "South Lodge",
    "status": "Going live",
    "statusId": 3,
    "underConstruction": false
  },
  {
    "city": "LONDON",
    "greaterCityLocator": "NW8",
    "latitude": "51.528313",
    "longitude": "-0.172078",
    "postCodes": null,
    "salesRepEmail": "sam.smith@hyperoptic.com",
    "salesRepId": 177307,
    "salesRepName": "Sam Smith",
    "salesRepPhone": "+44 7931 336 669",
    "siteId": 439,
    "siteName": "Pavilion Apartments",
    "status": "Taking orders",
    "statusId": 0,
    "underConstruction": false
  },
  {
    "city": "LONDON",
    "greaterCityLocator": "E2",
    "latitude": "51.525864",
    "longitude": "-0.057236",
    "postCodes": null,
    "salesRepEmail": "dan.fuller@hyperoptic.com",
    "salesRepId": 65221,
    "salesRepName": "Dan Fuller",
    "salesRepPhone": "+44 7825 755 220",
    "siteId": 441,
    "siteName": "Sunlight Square",
    "status": "Taking orders",
    "statusId": 0,
    "underConstruction": false
  },
  {
    "city": "LONDON",
    "greaterCityLocator": "N1",
    "latitude": "51.536123",
    "longitude": "-0.088839",
    "postCodes": null,
    "salesRepEmail": "steven.calder@hyperoptic.com",
    "salesRepId": 126984,
    "salesRepName": "Steven Calder",
    "salesRepPhone": "+44 7740 345 707",
    "siteId": 461,
    "siteName": "Gainsborough Studios",
    "status": "Taking orders",
    "statusId": 0,
    "underConstruction": false
  },
  {
    "city": "LONDON",
    "greaterCityLocator": "NW8",
    "latitude": "51.532818",
    "longitude": "-0.166865",
    "postCodes": null,
    "salesRepEmail": "sam.smith@hyperoptic.com",
    "salesRepId": 177307,
    "salesRepName": "Sam Smith",
    "salesRepPhone": "+44 7931 336 669",
    "siteId": 467,
    "siteName": "North Gate",
    "status": "Taking orders",
    "statusId": 0,
    "underConstruction": false
  },
  {
    "city": "LONDON",
    "greaterCityLocator": "E2",
    "latitude": "51.530874",
    "longitude": "-0.061089",
    "postCodes": null,
    "salesRepEmail": "dan.fuller@hyperoptic.com",
    "salesRepId": 65221,
    "salesRepName": "Dan Fuller",
    "salesRepPhone": "+44 7825 755 220",
    "siteId": 475,
    "siteName": "Keeling House",
    "status": "Taking orders",
    "statusId": 0,
    "underConstruction": false
  },
  {
    "city": "LONDON",
    "greaterCityLocator": "NW1",
    "latitude": "51.523086",
    "longitude": "-0.15754",
    "postCodes": null,
    "salesRepEmail": "sam.smith@hyperoptic.com",
    "salesRepId": 177307,
    "salesRepName": "Sam Smith",
    "salesRepPhone": "+44 7931 336 669",
    "siteId": 493,
    "siteName": "Chiltern Court",
    "status": "Taking orders",
    "statusId": 0,
    "underConstruction": false
  },
  {
    "city": "LONDON",
    "greaterCityLocator": "E2",
    "latitude": "51.529007",
    "longitude": "-0.042325",
    "postCodes": null,
    "salesRepEmail": "dan.fuller@hyperoptic.com",
    "salesRepId": 65221,
    "salesRepName": "Dan Fuller",
    "salesRepPhone": "+44 7825 755 220",
    "siteId": 501,
    "siteName": "Suttons Wharf",
    "status": "Taking orders",
    "statusId": 0,
    "underConstruction": false
  },
  {
    "city": "LONDON",
    "greaterCityLocator": "W1H",
    "latitude": "51.516181",
    "longitude": "-0.154216",
    "postCodes": null,
    "salesRepEmail": "sam.smith@hyperoptic.com",
    "salesRepId": 177307,
    "salesRepName": "Sam Smith",
    "salesRepPhone": "+44 7931 336 669",
    "siteId": 559,
    "siteName": "Orchard Court",
    "status": "Taking orders",
    "statusId": 0,
    "underConstruction": false
  },
  {
    "city": "LONDON",
    "greaterCityLocator": "W1H",
    "latitude": "51.516777",
    "longitude": "-0.15778",
    "postCodes": null,
    "salesRepEmail": "sam.smith@hyperoptic.com",
    "salesRepId": 177307,
    "salesRepName": "Sam Smith",
    "salesRepPhone": "+44 7931 336 669",
    "siteId": 609,
    "siteName": "Portman Towers",
    "status": "Taking orders",
    "statusId": 0,
    "underConstruction": false
  },
  {
    "city": "LONDON",
    "greaterCityLocator": "E3",
    "latitude": "51.524164",
    "longitude": "-0.012649",
    "postCodes": null,
    "salesRepEmail": "steven.calder@hyperoptic.com",
    "salesRepId": 126984,
    "salesRepName": "Steven Calder",
    "salesRepPhone": "+44 7740 345 707",
    "siteId": 628,
    "siteName": "St Andrews Village",
    "status": "Taking orders",
    "statusId": 0,
    "underConstruction": false
  },
  {
    "city": "LONDON",
    "greaterCityLocator": "E3",
    "latitude": "51.520034",
    "longitude": "-0.035993",
    "postCodes": null,
    "salesRepEmail": "dan.fuller@hyperoptic.com",
    "salesRepId": 65221,
    "salesRepName": "Dan Fuller",
    "salesRepPhone": "+44 7825 755 220",
    "siteId": 646,
    "siteName": "Candy Wharf",
    "status": "Taking orders",
    "statusId": 0,
    "underConstruction": false
  },
  {
    "city": "LONDON",
    "greaterCityLocator": "N7",
    "latitude": "51.560782",
    "longitude": "-0.120671",
    "postCodes": null,
    "salesRepEmail": "shay.gujral@hyperoptic.com",
    "salesRepId": 71496,
    "salesRepName": "Shay Gujral",
    "salesRepPhone": null,
    "siteId": 658,
    "siteName": "Beaux Arts",
    "status": "Taking orders",
    "statusId": 0,
    "underConstruction": false
  },
  {
    "city": "LONDON",
    "greaterCityLocator": "N7",
    "latitude": "51.549232",
    "longitude": "-0.115954",
    "postCodes": null,
    "salesRepEmail": "dan.fuller@hyperoptic.com",
    "salesRepId": 65221,
    "salesRepName": "Dan Fuller",
    "salesRepPhone": "+44 7825 755 220",
    "siteId": 670,
    "siteName": "Lough Road West",
    "status": "Taking orders",
    "statusId": 0,
    "underConstruction": false
  },
  {
    "city": "LONDON",
    "greaterCityLocator": "N1",
    "latitude": "51.533632",
    "longitude": "-0.093255",
    "postCodes": null,
    "salesRepEmail": "steven.calder@hyperoptic.com",
    "salesRepId": 126984,
    "salesRepName": "Steven Calder",
    "salesRepPhone": "+44 7740 345 707",
    "siteId": 672,
    "siteName": "Angel Wharf",
    "status": "Taking orders",
    "statusId": 0,
    "underConstruction": false
  },
  {
    "city": "LONDON",
    "greaterCityLocator": "E3",
    "latitude": "51.531607",
    "longitude": "-0.020471",
    "postCodes": null,
    "salesRepEmail": "dan.fuller@hyperoptic.com",
    "salesRepId": 65221,
    "salesRepName": "Dan Fuller",
    "salesRepPhone": "+44 7825 755 220",
    "siteId": 720,
    "siteName": "The Bow Quarter",
    "status": "Taking orders",
    "statusId": 0,
    "underConstruction": false
  },
  {
    "city": "LONDON",
    "greaterCityLocator": "EC1M",
    "latitude": "51.523081",
    "longitude": "-0.099202",
    "postCodes": null,
    "salesRepEmail": "dan.fuller@hyperoptic.com",
    "salesRepId": 65221,
    "salesRepName": "Dan Fuller",
    "salesRepPhone": "+44 7825 755 220",
    "siteId": 736,
    "siteName": "Charterhouse the Square",
    "status": "Taking orders",
    "statusId": 0,
    "underConstruction": false
  },
  {
    "city": "LONDON",
    "greaterCityLocator": "W9",
    "latitude": "51.528035",
    "longitude": "-0.181416",
    "postCodes": null,
    "salesRepEmail": "david.lewis@hyperoptic.com",
    "salesRepId": 24396,
    "salesRepName": "Dave Lewis",
    "salesRepPhone": "+44 7728 819 657",
    "siteId": 754,
    "siteName": "Stuart Tower",
    "status": "Taking orders",
    "statusId": 0,
    "underConstruction": false
  },
  {
    "city": "LONDON",
    "greaterCityLocator": "W2",
    "latitude": "51.51661",
    "longitude": "-0.168366",
    "postCodes": null,
    "salesRepEmail": "david.lewis@hyperoptic.com",
    "salesRepId": 24396,
    "salesRepName": "Dave Lewis",
    "salesRepPhone": "+44 7728 819 657",
    "siteId": 790,
    "siteName": "Quadrangle Tower & The Quadrangle",
    "status": "Taking orders",
    "statusId": 0,
    "underConstruction": false
  },
  {
    "city": "LONDON",
    "greaterCityLocator": "E15",
    "latitude": "51.532732",
    "longitude": "-0.009349",
    "postCodes": null,
    "salesRepEmail": "dan.fuller@hyperoptic.com",
    "salesRepId": 65221,
    "salesRepName": "Dan Fuller",
    "salesRepPhone": "+44 7825 755 220",
    "siteId": 812,
    "siteName": "The Lock Building",
    "status": "Taking orders",
    "statusId": 0,
    "underConstruction": false
  },
  {
    "city": "LONDON",
    "greaterCityLocator": "EC1Y",
    "latitude": "51.524915",
    "longitude": "-0.087002",
    "postCodes": null,
    "salesRepEmail": "dan.fuller@hyperoptic.com",
    "salesRepId": 65221,
    "salesRepName": "Dan Fuller",
    "salesRepPhone": "+44 7825 755 220",
    "siteId": 824,
    "siteName": "The Bezier",
    "status": "Taking orders",
    "statusId": 0,
    "underConstruction": false
  },
  {
    "city": "LONDON",
    "greaterCityLocator": "NW9",
    "latitude": "51.596254",
    "longitude": "-0.242943",
    "postCodes": null,
    "salesRepEmail": "mike.penn@hyperoptic.com",
    "salesRepId": 87806,
    "salesRepName": "Mike Penn",
    "salesRepPhone": null,
    "siteId": 828,
    "siteName": "Beaufort Park",
    "status": "Taking orders",
    "statusId": 0,
    "underConstruction": false
  },
  {
    "city": "LONDON",
    "greaterCityLocator": "E1",
    "latitude": "51.515701",
    "longitude": "-0.065827",
    "postCodes": null,
    "salesRepEmail": "dan.fuller@hyperoptic.com",
    "salesRepId": 65221,
    "salesRepName": "Dan Fuller",
    "salesRepPhone": "+44 7825 755 220",
    "siteId": 830,
    "siteName": "Aldgate Triangle",
    "status": "Taking orders",
    "statusId": 0,
    "underConstruction": false
  },
  {
    "city": "LONDON",
    "greaterCityLocator": "E15",
    "latitude": "51.536702",
    "longitude": "-0.001115",
    "postCodes": null,
    "salesRepEmail": "dan.fuller@hyperoptic.com",
    "salesRepId": 65221,
    "salesRepName": "Dan Fuller",
    "salesRepPhone": "+44 7825 755 220",
    "siteId": 838,
    "siteName": "Burford Wharf",
    "status": "Taking orders",
    "statusId": 0,
    "underConstruction": false
  },
  {
    "city": "LONDON",
    "greaterCityLocator": "E3",
    "latitude": "51.520313",
    "longitude": "-0.017285",
    "postCodes": null,
    "salesRepEmail": "adam.anderson@hyperoptic.com",
    "salesRepId": 97701,
    "salesRepName": "Adam Anderson",
    "salesRepPhone": "+44 7734 680 938",
    "siteId": 870,
    "siteName": "Caspian Wharf",
    "status": "Taking orders",
    "statusId": 0,
    "underConstruction": false
  },
  {
    "city": "LONDON",
    "greaterCityLocator": "E3",
    "latitude": "51.537404",
    "longitude": "-0.021863",
    "postCodes": null,
    "salesRepEmail": "dan.fuller@hyperoptic.com",
    "salesRepId": 65221,
    "salesRepName": "Dan Fuller",
    "salesRepPhone": "+44 7825 755 220",
    "siteId": 878,
    "siteName": "Iron Works",
    "status": "Taking orders",
    "statusId": 0,
    "underConstruction": false
  },
  {
    "city": "LONDON",
    "greaterCityLocator": "NW9",
    "latitude": "51.592218",
    "longitude": "-0.255745",
    "postCodes": null,
    "salesRepEmail": "sam.smith@hyperoptic.com",
    "salesRepId": 177307,
    "salesRepName": "Sam Smith",
    "salesRepPhone": "+44 7931 336 669",
    "siteId": 902,
    "siteName": "Zenith House",
    "status": "Taking orders",
    "statusId": 0,
    "underConstruction": false
  },
  {
    "city": "LONDON",
    "greaterCityLocator": "E3",
    "latitude": "51.533953",
    "longitude": "-0.024132",
    "postCodes": null,
    "salesRepEmail": "dan.fuller@hyperoptic.com",
    "salesRepId": 65221,
    "salesRepName": "Dan Fuller",
    "salesRepPhone": "+44 7825 755 220",
    "siteId": 904,
    "siteName": "The Heart of Bow",
    "status": "Taking orders",
    "statusId": 0,
    "underConstruction": false
  },
  {
    "city": "LONDON",
    "greaterCityLocator": "NW9",
    "latitude": "51.596937",
    "longitude": "-0.253759",
    "postCodes": null,
    "salesRepEmail": "david.lewis@hyperoptic.com",
    "salesRepId": 24396,
    "salesRepName": "Dave Lewis",
    "salesRepPhone": "+44 7728 819 657",
    "siteId": 948,
    "siteName": "Pulse",
    "status": "Taking orders",
    "statusId": 0,
    "underConstruction": false
  },
  {
    "city": "LONDON",
    "greaterCityLocator": "NW9",
    "latitude": "51.593888",
    "longitude": "-0.251942",
    "postCodes": null,
    "salesRepEmail": "sam.smith@hyperoptic.com",
    "salesRepId": 177307,
    "salesRepName": "Sam Smith",
    "salesRepPhone": "+44 7931 336 669",
    "siteId": 950,
    "siteName": "Rhythm",
    "status": "Taking orders",
    "statusId": 0,
    "underConstruction": false
  },
  {
    "city": "LONDON",
    "greaterCityLocator": "EC1A",
    "latitude": "51.517644",
    "longitude": "-0.102744",
    "postCodes": null,
    "salesRepEmail": "jeremy.domantay@hyperoptic.com",
    "salesRepId": 68249,
    "salesRepName": "Jeremy Domantay",
    "salesRepPhone": "+44 7931 542 348",
    "siteId": 982,
    "siteName": "10 Hosiers Lane",
    "status": "Taking orders",
    "statusId": 0,
    "underConstruction": false
  },
  {
    "city": "LONDON",
    "greaterCityLocator": "NW1",
    "latitude": "51.523659",
    "longitude": "-0.158541",
    "postCodes": null,
    "salesRepEmail": "sam.smith@hyperoptic.com",
    "salesRepId": 177307,
    "salesRepName": "Sam Smith",
    "salesRepPhone": "+44 7931 336 669",
    "siteId": 994,
    "siteName": "Park View Residence",
    "status": "Taking orders",
    "statusId": 0,
    "underConstruction": false
  },
  {
    "city": "LONDON",
    "greaterCityLocator": "NW1",
    "latitude": "51.525149",
    "longitude": "-0.161825",
    "postCodes": null,
    "salesRepEmail": "david.lewis@hyperoptic.com",
    "salesRepId": 24396,
    "salesRepName": "Dave Lewis",
    "salesRepPhone": "+44 7728 819 657",
    "siteId": 996,
    "siteName": "Ivor Court",
    "status": "Taking orders",
    "statusId": 0,
    "underConstruction": false
  },
  {
    "city": "LONDON",
    "greaterCityLocator": "NW1",
    "latitude": "51.523221",
    "longitude": "-0.156396",
    "postCodes": null,
    "salesRepEmail": "sam.smith@hyperoptic.com",
    "salesRepId": 177307,
    "salesRepName": "Sam Smith",
    "salesRepPhone": "+44 7931 336 669",
    "siteId": 1000,
    "siteName": "Cornwall House",
    "status": "Taking orders",
    "statusId": 0,
    "underConstruction": false
  },
  {
    "city": "LONDON",
    "greaterCityLocator": "W1H",
    "latitude": "51.516409",
    "longitude": "-0.155547",
    "postCodes": null,
    "salesRepEmail": "david.lewis@hyperoptic.com",
    "salesRepId": 24396,
    "salesRepName": "Dave Lewis",
    "salesRepPhone": "+44 7728 819 657",
    "siteId": 1010,
    "siteName": "Fitzhardinge House",
    "status": "Taking orders",
    "statusId": 0,
    "underConstruction": false
  },
  {
    "city": "LONDON",
    "greaterCityLocator": "W1H",
    "latitude": "51.516483",
    "longitude": "-0.16314",
    "postCodes": null,
    "salesRepEmail": "sam.smith@hyperoptic.com",
    "salesRepId": 177307,
    "salesRepName": "Sam Smith",
    "salesRepPhone": "+44 7931 336 669",
    "siteId": 1014,
    "siteName": "Fursecroft",
    "status": "Taking orders",
    "statusId": 0,
    "underConstruction": false
  },
  {
    "city": "LONDON",
    "greaterCityLocator": "E3",
    "latitude": "51.535838",
    "longitude": "-0.034072",
    "postCodes": null,
    "salesRepEmail": "dan.fuller@hyperoptic.com",
    "salesRepId": 65221,
    "salesRepName": "Dan Fuller",
    "salesRepPhone": "+44 7825 755 220",
    "siteId": 1062,
    "siteName": "Gunmakers Wharf",
    "status": "Taking orders",
    "statusId": 0,
    "underConstruction": false
  },
  {
    "city": "LONDON",
    "greaterCityLocator": "N7",
    "latitude": "51.548561",
    "longitude": "-0.106722",
    "postCodes": null,
    "salesRepEmail": "david.lewis@hyperoptic.com",
    "salesRepId": 24396,
    "salesRepName": "Dave Lewis",
    "salesRepPhone": "+44 7728 819 657",
    "siteId": 1094,
    "siteName": "Highbury Gardens",
    "status": "Taking orders",
    "statusId": 0,
    "underConstruction": false
  },
  {
    "city": "LONDON",
    "greaterCityLocator": "E1",
    "latitude": "51.520339",
    "longitude": "-0.04238",
    "postCodes": null,
    "salesRepEmail": "dan.fuller@hyperoptic.com",
    "salesRepId": 65221,
    "salesRepName": "Dan Fuller",
    "salesRepPhone": "+44 7825 755 220",
    "siteId": 1096,
    "siteName": "Vivo",
    "status": "Taking orders",
    "statusId": 0,
    "underConstruction": false
  },
  {
    "city": "LONDON",
    "greaterCityLocator": "EC2Y",
    "latitude": "51.519913",
    "longitude": "-0.090181",
    "postCodes": null,
    "salesRepEmail": "james.prowse@hyperoptic.com",
    "salesRepId": 64897,
    "salesRepName": "James Prowse",
    "salesRepPhone": "+44 7909 768 658",
    "siteId": 1114,
    "siteName": "The Heron",
    "status": "Taking orders",
    "statusId": 0,
    "underConstruction": false
  },
  {
    "city": "LONDON",
    "greaterCityLocator": "EC1V",
    "latitude": "51.52999",
    "longitude": "-0.09717",
    "postCodes": null,
    "salesRepEmail": "steven.calder@hyperoptic.com",
    "salesRepId": 126984,
    "salesRepName": "Steven Calder",
    "salesRepPhone": "+44 7740 345 707",
    "siteId": 1124,
    "siteName": "The Lexicon",
    "status": "Taking orders",
    "statusId": 0,
    "underConstruction": false
  },
  {
    "city": "LONDON",
    "greaterCityLocator": "EC1V",
    "latitude": "51.529481",
    "longitude": "-0.095735",
    "postCodes": null,
    "salesRepEmail": "thor.vidal@hyperoptic.com",
    "salesRepId": 190678,
    "salesRepName": "Thor Vidal",
    "salesRepPhone": null,
    "siteId": 1172,
    "siteName": "Canaletto",
    "status": "Taking orders",
    "statusId": 0,
    "underConstruction": true
  },
  {
    "city": "LONDON",
    "greaterCityLocator": "E15",
    "latitude": "51.531335",
    "longitude": "-0.012351",
    "postCodes": null,
    "salesRepEmail": "dan.fuller@hyperoptic.com",
    "salesRepId": 65221,
    "salesRepName": "Dan Fuller",
    "salesRepPhone": "+44 7825 755 220",
    "siteId": 1174,
    "siteName": "One Stratford",
    "status": "Taking orders",
    "statusId": 0,
    "underConstruction": false
  },
  {
    "city": "LONDON",
    "greaterCityLocator": "E15",
    "latitude": "51.531753",
    "longitude": "-0.011511",
    "postCodes": null,
    "salesRepEmail": "david.lewis@hyperoptic.com",
    "salesRepId": 24396,
    "salesRepName": "Dave Lewis",
    "salesRepPhone": "+44 7728 819 657",
    "siteId": 1226,
    "siteName": "Central House",
    "status": "Taking orders",
    "statusId": 0,
    "underConstruction": false
  },
  {
    "city": "LONDON",
    "greaterCityLocator": "NW3",
    "latitude": "51.545361",
    "longitude": "-0.156439",
    "postCodes": null,
    "salesRepEmail": "sam.smith@hyperoptic.com",
    "salesRepId": 177307,
    "salesRepName": "Sam Smith",
    "salesRepPhone": "+44 7931 336 669",
    "siteId": 1290,
    "siteName": "The Etons",
    "status": "Taking orders",
    "statusId": 0,
    "underConstruction": false
  },
  {
    "city": "LONDON",
    "greaterCityLocator": "E8",
    "latitude": "51.550556",
    "longitude": "-0.057685",
    "postCodes": null,
    "salesRepEmail": "dan.fuller@hyperoptic.com",
    "salesRepId": 65221,
    "salesRepName": "Dan Fuller",
    "salesRepPhone": "+44 7825 755 220",
    "siteId": 3277815877,
    "siteName": "Atkins Square",
    "status": "Taking orders",
    "statusId": 0,
    "underConstruction": false
  },
  {
    "city": "LONDON",
    "greaterCityLocator": "W10",
    "latitude": "51.52333",
    "longitude": "-0.218175",
    "postCodes": null,
    "salesRepEmail": "david.lewis@hyperoptic.com",
    "salesRepId": 24396,
    "salesRepName": "Dave Lewis",
    "salesRepPhone": "+44 7728 819 657",
    "siteId": 3277815905,
    "siteName": "Ink Building",
    "status": "Taking orders",
    "statusId": 0,
    "underConstruction": false
  },
  {
    "city": "LONDON",
    "greaterCityLocator": "E9",
    "latitude": "51.545843",
    "longitude": "-0.051121",
    "postCodes": null,
    "salesRepEmail": "dan.fuller@hyperoptic.com",
    "salesRepId": 65221,
    "salesRepName": "Dan Fuller",
    "salesRepPhone": "+44 7825 755 220",
    "siteId": 3277815929,
    "siteName": "Textile Building",
    "status": "Taking orders",
    "statusId": 0,
    "underConstruction": false
  },
  {
    "city": "LONDON",
    "greaterCityLocator": "E5",
    "latitude": "51.562636",
    "longitude": "-0.045916",
    "postCodes": null,
    "salesRepEmail": "dan.fuller@hyperoptic.com",
    "salesRepId": 65221,
    "salesRepName": "Dan Fuller",
    "salesRepPhone": "+44 7825 755 220",
    "siteId": 3277815935,
    "siteName": "Essex Wharf",
    "status": "Going live",
    "statusId": 3,
    "underConstruction": false
  },
  {
    "city": "LONDON",
    "greaterCityLocator": "N1",
    "latitude": "51.544542",
    "longitude": "-0.105649",
    "postCodes": null,
    "salesRepEmail": "jeremy.domantay@hyperoptic.com",
    "salesRepId": 68249,
    "salesRepName": "Jeremy Domantay",
    "salesRepPhone": "+44 7931 542 348",
    "siteId": 3277816001,
    "siteName": "Islington Central",
    "status": "Taking orders",
    "statusId": 0,
    "underConstruction": false
  },
  {
    "city": "LONDON",
    "greaterCityLocator": "E3",
    "latitude": "51.517284",
    "longitude": "-0.022173",
    "postCodes": null,
    "salesRepEmail": "dan.fuller@hyperoptic.com",
    "salesRepId": 65221,
    "salesRepName": "Dan Fuller",
    "salesRepPhone": "+44 7825 755 220",
    "siteId": 3277816035,
    "siteName": "Aqua Vista",
    "status": "Taking orders",
    "statusId": 0,
    "underConstruction": false
  },
  {
    "city": "LONDON",
    "greaterCityLocator": "NW1",
    "latitude": "51.540708",
    "longitude": "-0.147628",
    "postCodes": null,
    "salesRepEmail": "sam.smith@hyperoptic.com",
    "salesRepId": 177307,
    "salesRepName": "Sam Smith",
    "salesRepPhone": "+44 7931 336 669",
    "siteId": 3277816053,
    "siteName": "The Henson",
    "status": "Taking orders",
    "statusId": 0,
    "underConstruction": false
  },
  {
    "city": "LONDON",
    "greaterCityLocator": "NW1",
    "latitude": "51.540183",
    "longitude": "-0.147448",
    "postCodes": null,
    "salesRepEmail": "sam.smith@hyperoptic.com",
    "salesRepId": 177307,
    "salesRepName": "Sam Smith",
    "salesRepPhone": "+44 7931 336 669",
    "siteId": 3277816061,
    "siteName": "Gilbey House",
    "status": "Taking orders",
    "statusId": 0,
    "underConstruction": false
  },
  {
    "city": "LONDON",
    "greaterCityLocator": "WC1B",
    "latitude": "51.518137",
    "longitude": "-0.12897",
    "postCodes": null,
    "salesRepEmail": "jeremy.domantay@hyperoptic.com",
    "salesRepId": 68249,
    "salesRepName": "Jeremy Domantay",
    "salesRepPhone": "+44 7931 542 348",
    "siteId": 3277816187,
    "siteName": "Bedford Court Mansions",
    "status": "Taking orders",
    "statusId": 0,
    "underConstruction": false
  },
  {
    "city": "LONDON",
    "greaterCityLocator": "N1",
    "latitude": "51.528419",
    "longitude": "-0.089018",
    "postCodes": null,
    "salesRepEmail": "tom.hollings@hyperoptic.com",
    "salesRepId": 182917,
    "salesRepName": "Tom Hollings",
    "salesRepPhone": "+44 7841 236 010",
    "siteId": 3277816189,
    "siteName": "Britannia Building",
    "status": "Going live",
    "statusId": 3,
    "underConstruction": false
  },
  {
    "city": "LONDON",
    "greaterCityLocator": "W1U",
    "latitude": "51.520634",
    "longitude": "-0.157769",
    "postCodes": null,
    "salesRepEmail": "david.lewis@hyperoptic.com",
    "salesRepId": 24396,
    "salesRepName": "Dave Lewis",
    "salesRepPhone": "+44 7728 819 657",
    "siteId": 3277816331,
    "siteName": "Montagu Mansions",
    "status": "Taking orders",
    "statusId": 0,
    "underConstruction": false
  },
  {
    "city": "LONDON",
    "greaterCityLocator": "W2",
    "latitude": "51.522075",
    "longitude": "-0.177488",
    "postCodes": null,
    "salesRepEmail": "david.lewis@hyperoptic.com",
    "salesRepId": 24396,
    "salesRepName": "Dave Lewis",
    "salesRepPhone": "+44 7728 819 657",
    "siteId": 3277816343,
    "siteName": "St Marys Mansions",
    "status": "Taking orders",
    "statusId": 0,
    "underConstruction": false
  },
  {
    "city": "LONDON",
    "greaterCityLocator": "NW1",
    "latitude": "51.525566",
    "longitude": "-0.139809",
    "postCodes": null,
    "salesRepEmail": "sam.smith@hyperoptic.com",
    "salesRepId": 177307,
    "salesRepName": "Sam Smith",
    "salesRepPhone": "+44 7931 336 669",
    "siteId": 3277816347,
    "siteName": "The Triton Building, Regents Place",
    "status": "Taking orders",
    "statusId": 0,
    "underConstruction": false
  },
  {
    "city": "LONDON",
    "greaterCityLocator": "NW6",
    "latitude": "51.547042",
    "longitude": "-0.192254",
    "postCodes": null,
    "salesRepEmail": "thor.vidal@hyperoptic.com",
    "salesRepId": 190678,
    "salesRepName": "Thor Vidal",
    "salesRepPhone": null,
    "siteId": 3277816353,
    "siteName": "West Hampstead Square",
    "status": "Taking orders",
    "statusId": 0,
    "underConstruction": false
  },
  {
    "city": "LONDON",
    "greaterCityLocator": "E15",
    "latitude": "51.530119",
    "longitude": "-0.013831",
    "postCodes": null,
    "salesRepEmail": "ben.squire@hyperoptic.com",
    "salesRepId": 68216,
    "salesRepName": "Ben Squire",
    "salesRepPhone": "+44 7725 247 974",
    "siteId": 3277816405,
    "siteName": "Capital Towers - Sky View, City West",
    "status": "Taking orders",
    "statusId": 0,
    "underConstruction": true
  },
  {
    "city": "LONDON",
    "greaterCityLocator": "W10",
    "latitude": "51.522212",
    "longitude": "-0.209108",
    "postCodes": null,
    "salesRepEmail": "Frances.Barnes@hyperoptic.com",
    "salesRepId": 177318,
    "salesRepName": "Frances Barnes",
    "salesRepPhone": "+44 7783 643 943",
    "siteId": 3277816407,
    "siteName": "Wornington Green",
    "status": "Taking orders",
    "statusId": 0,
    "underConstruction": false
  },
  {
    "city": "LONDON",
    "greaterCityLocator": "E20",
    "latitude": "51.548593",
    "longitude": "-0.007099",
    "postCodes": null,
    "salesRepEmail": "brian.doherty@hyperoptic.com",
    "salesRepId": 25177,
    "salesRepName": "Brian Doherty",
    "salesRepPhone": "+44 7775 625 028",
    "siteId": 3277816417,
    "siteName": "East Village Block N10",
    "status": "Taking orders",
    "statusId": 0,
    "underConstruction": false
  },
  {
    "city": "LONDON",
    "greaterCityLocator": "NW3",
    "latitude": "51.557449",
    "longitude": "-0.194193",
    "postCodes": null,
    "salesRepEmail": "adam.anderson@hyperoptic.com",
    "salesRepId": 97701,
    "salesRepName": "Adam Anderson",
    "salesRepPhone": "+44 7734 680 938",
    "siteId": 3277816491,
    "siteName": "Kidderpore Avenue",
    "status": "Taking orders",
    "statusId": 0,
    "underConstruction": true
  },
  {
    "city": "LONDON",
    "greaterCityLocator": "E2",
    "latitude": "51.527351",
    "longitude": "-0.042266",
    "postCodes": null,
    "salesRepEmail": "dan.fuller@hyperoptic.com",
    "salesRepId": 65221,
    "salesRepName": "Dan Fuller",
    "salesRepPhone": "+44 7825 755 220",
    "siteId": 3277816567,
    "siteName": "Meath Crescent",
    "status": "Taking orders",
    "statusId": 0,
    "underConstruction": false
  },
  {
    "city": "LONDON",
    "greaterCityLocator": "E1",
    "latitude": "51.525197",
    "longitude": "-0.049552",
    "postCodes": null,
    "salesRepEmail": "eleanor.sands@hyperoptic.com",
    "salesRepId": 194036,
    "salesRepName": "Eleanor Sands",
    "salesRepPhone": null,
    "siteId": 3277820341,
    "siteName": "Bancroft Estate",
    "status": "Taking orders",
    "statusId": 0,
    "underConstruction": false
  },
  {
    "city": "LONDON",
    "greaterCityLocator": "E1",
    "latitude": "51.519905",
    "longitude": "-0.048755",
    "postCodes": null,
    "salesRepEmail": "Frances.Barnes@hyperoptic.com",
    "salesRepId": 177318,
    "salesRepName": "Frances Barnes",
    "salesRepPhone": "+44 7783 643 943",
    "siteId": 3277820379,
    "siteName": "Dunstan Houses",
    "status": "Taking orders",
    "statusId": 0,
    "underConstruction": false
  },
  {
    "city": "LONDON",
    "greaterCityLocator": "E1",
    "latitude": "51.520947",
    "longitude": "-0.074772",
    "postCodes": null,
    "salesRepEmail": "dan.fuller@hyperoptic.com",
    "salesRepId": 65221,
    "salesRepName": "Dan Fuller",
    "salesRepPhone": "+44 7825 755 220",
    "siteId": 3277820389,
    "siteName": "Exchange Building",
    "status": "Taking orders",
    "statusId": 0,
    "underConstruction": false
  },
  {
    "city": "LONDON",
    "greaterCityLocator": "E1",
    "latitude": "51.516174",
    "longitude": "-0.066181",
    "postCodes": null,
    "salesRepEmail": "dan.fuller@hyperoptic.com",
    "salesRepId": 65221,
    "salesRepName": "Dan Fuller",
    "salesRepPhone": "+44 7825 755 220",
    "siteId": 3277820423,
    "siteName": "Jacobs Court,Plumbers Row",
    "status": "Taking orders",
    "statusId": 0,
    "underConstruction": false
  },
  {
    "city": "LONDON",
    "greaterCityLocator": "E1",
    "latitude": "51.519712",
    "longitude": "-0.037145",
    "postCodes": null,
    "salesRepEmail": "dan.fuller@hyperoptic.com",
    "salesRepId": 65221,
    "salesRepName": "Dan Fuller",
    "salesRepPhone": "+44 7825 755 220",
    "siteId": 3277820427,
    "siteName": "Grand Union Place",
    "status": "Taking orders",
    "statusId": 0,
    "underConstruction": false
  },
  {
    "city": "LONDON",
    "greaterCityLocator": "E1",
    "latitude": "51.516609",
    "longitude": "-0.052787",
    "postCodes": null,
    "salesRepEmail": "dan.fuller@hyperoptic.com",
    "salesRepId": 65221,
    "salesRepName": "Dan Fuller",
    "salesRepPhone": "+44 7825 755 220",
    "siteId": 3277820499,
    "siteName": "Stepney City Apartments",
    "status": "Taking orders",
    "statusId": 0,
    "underConstruction": false
  },
  {
    "city": "LONDON",
    "greaterCityLocator": "E1",
    "latitude": "51.519443",
    "longitude": "-0.045848",
    "postCodes": null,
    "salesRepEmail": "dan.fuller@hyperoptic.com",
    "salesRepId": 65221,
    "salesRepName": "Dan Fuller",
    "salesRepPhone": "+44 7825 755 220",
    "siteId": 3277820501,
    "siteName": "Stepney Green Court",
    "status": "Taking orders",
    "statusId": 0,
    "underConstruction": false
  },
  {
    "city": "LONDON",
    "greaterCityLocator": "E14",
    "latitude": "51.515481",
    "longitude": "-0.028319",
    "postCodes": null,
    "salesRepEmail": "dan.fuller@hyperoptic.com",
    "salesRepId": 65221,
    "salesRepName": "Dan Fuller",
    "salesRepPhone": "+44 7825 755 220",
    "siteId": 3277820609,
    "siteName": "Butler House,Burdett Road",
    "status": "Taking orders",
    "statusId": 0,
    "underConstruction": false
  },
  {
    "city": "LONDON",
    "greaterCityLocator": "E14",
    "latitude": "51.517153",
    "longitude": "-0.015462",
    "postCodes": null,
    "salesRepEmail": "steven.calder@hyperoptic.com",
    "salesRepId": 126984,
    "salesRepName": "Steven Calder",
    "salesRepPhone": "+44 7740 345 707",
    "siteId": 3277820709,
    "siteName": "Fawe & Rifle Street",
    "status": "Taking orders",
    "statusId": 0,
    "underConstruction": false
  },
  {
    "city": "LONDON",
    "greaterCityLocator": "E15",
    "latitude": "51.538396",
    "longitude": "-0.002396",
    "postCodes": null,
    "salesRepEmail": "dan.fuller@hyperoptic.com",
    "salesRepId": 65221,
    "salesRepName": "Dan Fuller",
    "salesRepPhone": "+44 7825 755 220",
    "siteId": 3277820741,
    "siteName": "Edge Apartments",
    "status": "Taking orders",
    "statusId": 0,
    "underConstruction": false
  },
  {
    "city": "LONDON",
    "greaterCityLocator": "E15",
    "latitude": "51.546653",
    "longitude": "0.00698",
    "postCodes": null,
    "salesRepEmail": "steven.calder@hyperoptic.com",
    "salesRepId": 126984,
    "salesRepName": "Steven Calder",
    "salesRepPhone": "+44 7740 345 707",
    "siteId": 3277820751,
    "siteName": "Ibex House",
    "status": "Taking orders",
    "statusId": 0,
    "underConstruction": false
  },
  {
    "city": "LONDON",
    "greaterCityLocator": "E15",
    "latitude": "51.535742",
    "longitude": "-0.004401",
    "postCodes": null,
    "salesRepEmail": "dan.fuller@hyperoptic.com",
    "salesRepId": 65221,
    "salesRepName": "Dan Fuller",
    "salesRepPhone": "+44 7825 755 220",
    "siteId": 3277820761,
    "siteName": "Peter Heathfield House",
    "status": "Taking orders",
    "statusId": 0,
    "underConstruction": false
  },
  {
    "city": "LONDON",
    "greaterCityLocator": "E15",
    "latitude": "51.535433",
    "longitude": "-0.00479",
    "postCodes": null,
    "salesRepEmail": "dan.fuller@hyperoptic.com",
    "salesRepId": 65221,
    "salesRepName": "Dan Fuller",
    "salesRepPhone": "+44 7825 755 220",
    "siteId": 3277820767,
    "siteName": "1 Rick Roberts Way",
    "status": "Taking orders",
    "statusId": 0,
    "underConstruction": false
  },
  {
    "city": "LONDON",
    "greaterCityLocator": "E15",
    "latitude": "51.537488",
    "longitude": "-0.003474",
    "postCodes": null,
    "salesRepEmail": "dan.fuller@hyperoptic.com",
    "salesRepId": 65221,
    "salesRepName": "Dan Fuller",
    "salesRepPhone": "+44 7825 755 220",
    "siteId": 3277820769,
    "siteName": "1,Ward Road",
    "status": "Taking orders",
    "statusId": 0,
    "underConstruction": false
  },
  {
    "city": "LONDON",
    "greaterCityLocator": "E16",
    "latitude": "51.516212",
    "longitude": "0.009648",
    "postCodes": null,
    "salesRepEmail": "steven.calder@hyperoptic.com",
    "salesRepId": 126984,
    "salesRepName": "Steven Calder",
    "salesRepPhone": "+44 7740 345 707",
    "siteId": 3277820815,
    "siteName": "30 Barking Road",
    "status": "Taking orders",
    "statusId": 0,
    "underConstruction": false
  },
  {
    "city": "LONDON",
    "greaterCityLocator": "E17",
    "latitude": "51.592888",
    "longitude": "-0.037385",
    "postCodes": null,
    "salesRepEmail": "dan.fuller@hyperoptic.com",
    "salesRepId": 65221,
    "salesRepName": "Dan Fuller",
    "salesRepPhone": "+44 7825 755 220",
    "siteId": 3277820835,
    "siteName": "Vellum Court",
    "status": "Taking orders",
    "statusId": 0,
    "underConstruction": false
  },
  {
    "city": "LONDON",
    "greaterCityLocator": "E2",
    "latitude": "51.527751",
    "longitude": "-0.057646",
    "postCodes": null,
    "salesRepEmail": "dan.fuller@hyperoptic.com",
    "salesRepId": 65221,
    "salesRepName": "Dan Fuller",
    "salesRepPhone": "+44 7825 755 220",
    "siteId": 3277820915,
    "siteName": "City View House",
    "status": "Taking orders",
    "statusId": 0,
    "underConstruction": false
  },
  {
    "city": "LONDON",
    "greaterCityLocator": "E2",
    "latitude": "51.536226",
    "longitude": "-0.076434",
    "postCodes": null,
    "salesRepEmail": "dan.fuller@hyperoptic.com",
    "salesRepId": 65221,
    "salesRepName": "Dan Fuller",
    "salesRepPhone": "+44 7825 755 220",
    "siteId": 3277820995,
    "siteName": "Timber Wharf",
    "status": "Taking orders",
    "statusId": 0,
    "underConstruction": false
  },
  {
    "city": "LONDON",
    "greaterCityLocator": "E2",
    "latitude": "51.530149",
    "longitude": "-0.042362",
    "postCodes": null,
    "salesRepEmail": "dan.fuller@hyperoptic.com",
    "salesRepId": 65221,
    "salesRepName": "Dan Fuller",
    "salesRepPhone": "+44 7825 755 220",
    "siteId": 3277821001,
    "siteName": "Victoria Wharf Bow",
    "status": "Taking orders",
    "statusId": 0,
    "underConstruction": false
  },
  {
    "city": "LONDON",
    "greaterCityLocator": "E2",
    "latitude": "51.527836",
    "longitude": "-0.041178",
    "postCodes": null,
    "salesRepEmail": "dan.fuller@hyperoptic.com",
    "salesRepId": 65221,
    "salesRepName": "Dan Fuller",
    "salesRepPhone": "+44 7825 755 220",
    "siteId": 3277821003,
    "siteName": "Suttons Wharf South",
    "status": "Taking orders",
    "statusId": 0,
    "underConstruction": false
  },
  {
    "city": "LONDON",
    "greaterCityLocator": "E3",
    "latitude": "51.531898",
    "longitude": "-0.030263",
    "postCodes": null,
    "salesRepEmail": "eleanor.sands@hyperoptic.com",
    "salesRepId": 194036,
    "salesRepName": "Eleanor Sands",
    "salesRepPhone": null,
    "siteId": 3277821023,
    "siteName": "Brodick House",
    "status": "Taking orders",
    "statusId": 0,
    "underConstruction": false
  },
  {
    "city": "LONDON",
    "greaterCityLocator": "E3",
    "latitude": "51.535928",
    "longitude": "-0.02125",
    "postCodes": null,
    "salesRepEmail": "dan.fuller@hyperoptic.com",
    "salesRepId": 65221,
    "salesRepName": "Dan Fuller",
    "salesRepPhone": "+44 7825 755 220",
    "siteId": 3277821055,
    "siteName": "Riverside Wharf",
    "status": "Taking orders",
    "statusId": 0,
    "underConstruction": false
  },
  {
    "city": "LONDON",
    "greaterCityLocator": "E3",
    "latitude": "51.518398",
    "longitude": "-0.022658",
    "postCodes": null,
    "salesRepEmail": "shay.gujral@hyperoptic.com",
    "salesRepId": 71496,
    "salesRepName": "Shay Gujral",
    "salesRepPhone": null,
    "siteId": 3277821071,
    "siteName": "Park View Court",
    "status": "Taking orders",
    "statusId": 0,
    "underConstruction": false
  },
  {
    "city": "LONDON",
    "greaterCityLocator": "E3",
    "latitude": "51.530339",
    "longitude": "-0.026307",
    "postCodes": null,
    "salesRepEmail": "dan.fuller@hyperoptic.com",
    "salesRepId": 65221,
    "salesRepName": "Dan Fuller",
    "salesRepPhone": "+44 7825 755 220",
    "siteId": 3277821101,
    "siteName": "So Bow",
    "status": "Taking orders",
    "statusId": 0,
    "underConstruction": false
  },
  {
    "city": "LONDON",
    "greaterCityLocator": "E3",
    "latitude": "51.536256",
    "longitude": "-0.022014",
    "postCodes": null,
    "salesRepEmail": "dan.fuller@hyperoptic.com",
    "salesRepId": 65221,
    "salesRepName": "Dan Fuller",
    "salesRepPhone": "+44 7825 755 220",
    "siteId": 3277821107,
    "siteName": "417 Wick Lane Wharf",
    "status": "Taking orders",
    "statusId": 0,
    "underConstruction": false
  },
  {
    "city": "LONDON",
    "greaterCityLocator": "E3",
    "latitude": "51.520612",
    "longitude": "-0.017935",
    "postCodes": null,
    "salesRepEmail": "steven.calder@hyperoptic.com",
    "salesRepId": 126984,
    "salesRepName": "Steven Calder",
    "salesRepPhone": "+44 7740 345 707",
    "siteId": 3277821109,
    "siteName": "42,Violet Road",
    "status": "Taking orders",
    "statusId": 0,
    "underConstruction": false
  },
  {
    "city": "LONDON",
    "greaterCityLocator": "E5",
    "latitude": "51.554232",
    "longitude": "-0.03703",
    "postCodes": null,
    "salesRepEmail": "dan.fuller@hyperoptic.com",
    "salesRepId": 65221,
    "salesRepName": "Dan Fuller",
    "salesRepPhone": "+44 7825 755 220",
    "siteId": 3277821145,
    "siteName": "Landmark Heights",
    "status": "Taking orders",
    "statusId": 0,
    "underConstruction": false
  },
  {
    "city": "LONDON",
    "greaterCityLocator": "E5",
    "latitude": "51.561351",
    "longitude": "-0.045452",
    "postCodes": null,
    "salesRepEmail": "dan.fuller@hyperoptic.com",
    "salesRepId": 65221,
    "salesRepName": "Dan Fuller",
    "salesRepPhone": "+44 7825 755 220",
    "siteId": 3277821155,
    "siteName": "Paradise Park",
    "status": "Taking orders",
    "statusId": 0,
    "underConstruction": false
  },
  {
    "city": "LONDON",
    "greaterCityLocator": "E6",
    "latitude": "51.535445",
    "longitude": "0.040012",
    "postCodes": null,
    "salesRepEmail": "steven.calder@hyperoptic.com",
    "salesRepId": 126984,
    "salesRepName": "Steven Calder",
    "salesRepPhone": "+44 7740 345 707",
    "siteId": 3277821185,
    "siteName": "Cearns House",
    "status": "Taking orders",
    "statusId": 0,
    "underConstruction": false
  },
  {
    "city": "LONDON",
    "greaterCityLocator": "E8",
    "latitude": "51.537208",
    "longitude": "-0.0771",
    "postCodes": null,
    "salesRepEmail": "dan.fuller@hyperoptic.com",
    "salesRepId": 65221,
    "salesRepName": "Dan Fuller",
    "salesRepPhone": "+44 7825 755 220",
    "siteId": 3277821203,
    "siteName": "Benyon Wharf",
    "status": "Taking orders",
    "statusId": 0,
    "underConstruction": false
  },
  {
    "city": "LONDON",
    "greaterCityLocator": "E8",
    "latitude": "51.535635",
    "longitude": "-0.057512",
    "postCodes": null,
    "salesRepEmail": "dan.fuller@hyperoptic.com",
    "salesRepId": 65221,
    "salesRepName": "Dan Fuller",
    "salesRepPhone": "+44 7825 755 220",
    "siteId": 3277821211,
    "siteName": "Cordwainer House",
    "status": "Taking orders",
    "statusId": 0,
    "underConstruction": false
  },
  {
    "city": "LONDON",
    "greaterCityLocator": "E8",
    "latitude": "51.54783",
    "longitude": "-0.061378",
    "postCodes": null,
    "salesRepEmail": "dan.fuller@hyperoptic.com",
    "salesRepId": 65221,
    "salesRepName": "Dan Fuller",
    "salesRepPhone": "+44 7825 755 220",
    "siteId": 3277821213,
    "siteName": "Cottrill Gardens",
    "status": "Taking orders",
    "statusId": 0,
    "underConstruction": false
  },
  {
    "city": "LONDON",
    "greaterCityLocator": "E8",
    "latitude": "51.554345",
    "longitude": "-0.067116",
    "postCodes": null,
    "salesRepEmail": "dan.fuller@hyperoptic.com",
    "salesRepId": 65221,
    "salesRepName": "Dan Fuller",
    "salesRepPhone": "+44 7825 755 220",
    "siteId": 3277821221,
    "siteName": "Evelyn Court",
    "status": "Taking orders",
    "statusId": 0,
    "underConstruction": false
  },
  {
    "city": "LONDON",
    "greaterCityLocator": "E8",
    "latitude": "51.552643",
    "longitude": "-0.065298",
    "postCodes": null,
    "salesRepEmail": "matt.ogden@hyperoptic.com",
    "salesRepId": 194049,
    "salesRepName": "Matt Ogden",
    "salesRepPhone": null,
    "siteId": 3277821225,
    "siteName": "Downs Estate",
    "status": "Taking orders",
    "statusId": 0,
    "underConstruction": false
  },
  {
    "city": "LONDON",
    "greaterCityLocator": "E8",
    "latitude": "51.548048",
    "longitude": "-0.06258",
    "postCodes": null,
    "salesRepEmail": "dan.fuller@hyperoptic.com",
    "salesRepId": 65221,
    "salesRepName": "Dan Fuller",
    "salesRepPhone": "+44 7825 755 220",
    "siteId": 3277821253,
    "siteName": "Navarino Mansions",
    "status": "Taking orders",
    "statusId": 0,
    "underConstruction": false
  },
  {
    "city": "LONDON",
    "greaterCityLocator": "E9",
    "latitude": "51.543995",
    "longitude": "-0.027707",
    "postCodes": null,
    "salesRepEmail": "archie.collyer-bristow@hyperoptic.com",
    "salesRepId": 68227,
    "salesRepName": "Archie CollyerBristow",
    "salesRepPhone": "+44 7701 045 810",
    "siteId": 3277821303,
    "siteName": "Biggs Square",
    "status": "Taking orders",
    "statusId": 0,
    "underConstruction": false
  },
  {
    "city": "LONDON",
    "greaterCityLocator": "EC1R",
    "latitude": "51.522293",
    "longitude": "-0.112209",
    "postCodes": null,
    "salesRepEmail": "dan.fuller@hyperoptic.com",
    "salesRepId": 65221,
    "salesRepName": "Dan Fuller",
    "salesRepPhone": "+44 7825 755 220",
    "siteId": 3277821409,
    "siteName": "Gray's Inn Buildings",
    "status": "Taking orders",
    "statusId": 0,
    "underConstruction": false
  },
  {
    "city": "LONDON",
    "greaterCityLocator": "EC1V",
    "latitude": "51.526336",
    "longitude": "-0.088139",
    "postCodes": null,
    "salesRepEmail": "steven.calder@hyperoptic.com",
    "salesRepId": 126984,
    "salesRepName": "Steven Calder",
    "salesRepPhone": "+44 7740 345 707",
    "siteId": 3277821451,
    "siteName": "Imperial Hall",
    "status": "Taking orders",
    "statusId": 0,
    "underConstruction": false
  },
  {
    "city": "LONDON",
    "greaterCityLocator": "EC1V",
    "latitude": "51.526692",
    "longitude": "-0.097322",
    "postCodes": null,
    "salesRepEmail": "steven.calder@hyperoptic.com",
    "salesRepId": 126984,
    "salesRepName": "Steven Calder",
    "salesRepPhone": "+44 7740 345 707",
    "siteId": 3277821489,
    "siteName": "Worcester Point",
    "status": "Taking orders",
    "statusId": 0,
    "underConstruction": false
  },
  {
    "city": "LONDON",
    "greaterCityLocator": "EC2Y",
    "latitude": "51.521286",
    "longitude": "-0.095529",
    "postCodes": null,
    "salesRepEmail": "jeremy.domantay@hyperoptic.com",
    "salesRepId": 68249,
    "salesRepName": "Jeremy Domantay",
    "salesRepPhone": "+44 7931 542 348",
    "siteId": 3277821557,
    "siteName": "The Cobalt Building",
    "status": "Taking orders",
    "statusId": 0,
    "underConstruction": false
  },
  {
    "city": "LONDON",
    "greaterCityLocator": "N1",
    "latitude": "51.52965",
    "longitude": "-0.084555",
    "postCodes": null,
    "salesRepEmail": "steven.calder@hyperoptic.com",
    "salesRepId": 126984,
    "salesRepName": "Steven Calder",
    "salesRepPhone": "+44 7740 345 707",
    "siteId": 3277825889,
    "siteName": "Finn House",
    "status": "Taking orders",
    "statusId": 0,
    "underConstruction": false
  },
  {
    "city": "LONDON",
    "greaterCityLocator": "N1",
    "latitude": "51.537431",
    "longitude": "-0.079729",
    "postCodes": null,
    "salesRepEmail": "jeremy.domantay@hyperoptic.com",
    "salesRepId": 68249,
    "salesRepName": "Jeremy Domantay",
    "salesRepPhone": "+44 7931 542 348",
    "siteId": 3277825899,
    "siteName": "De Beauvoir Crescent",
    "status": "Taking orders",
    "statusId": 0,
    "underConstruction": false
  },
  {
    "city": "LONDON",
    "greaterCityLocator": "N1",
    "latitude": "51.535081",
    "longitude": "-0.120086",
    "postCodes": null,
    "salesRepEmail": "shay.gujral@hyperoptic.com",
    "salesRepId": 71496,
    "salesRepName": "Shay Gujral",
    "salesRepPhone": null,
    "siteId": 3277825915,
    "siteName": "Ice Wharf",
    "status": "Taking orders",
    "statusId": 0,
    "underConstruction": false
  },
  {
    "city": "LONDON",
    "greaterCityLocator": "N1",
    "latitude": "51.536641",
    "longitude": "-0.079301",
    "postCodes": null,
    "salesRepEmail": "steven.calder@hyperoptic.com",
    "salesRepId": 126984,
    "salesRepName": "Steven Calder",
    "salesRepPhone": "+44 7740 345 707",
    "siteId": 3277825933,
    "siteName": "Kleine Wharf",
    "status": "Taking orders",
    "statusId": 0,
    "underConstruction": false
  },
  {
    "city": "LONDON",
    "greaterCityLocator": "N1",
    "latitude": "51.530148",
    "longitude": "-0.09082",
    "postCodes": null,
    "salesRepEmail": "steven.calder@hyperoptic.com",
    "salesRepId": 126984,
    "salesRepName": "Steven Calder",
    "salesRepPhone": "+44 7740 345 707",
    "siteId": 3277825953,
    "siteName": "Oakleigh Court",
    "status": "Taking orders",
    "statusId": 0,
    "underConstruction": false
  },
  {
    "city": "LONDON",
    "greaterCityLocator": "N1",
    "latitude": "51.537261",
    "longitude": "-0.078727",
    "postCodes": null,
    "salesRepEmail": "steven.calder@hyperoptic.com",
    "salesRepId": 126984,
    "salesRepName": "Steven Calder",
    "salesRepPhone": "+44 7740 345 707",
    "siteId": 3277825969,
    "siteName": "Reliance Wharf",
    "status": "Taking orders",
    "statusId": 0,
    "underConstruction": false
  },
  {
    "city": "LONDON",
    "greaterCityLocator": "N16",
    "latitude": "51.557265",
    "longitude": "-0.075128",
    "postCodes": null,
    "salesRepEmail": "dan.fuller@hyperoptic.com",
    "salesRepId": 65221,
    "salesRepName": "Dan Fuller",
    "salesRepPhone": "+44 7825 755 220",
    "siteId": 3277826143,
    "siteName": "Stoke Newington Estate",
    "status": "Taking orders",
    "statusId": 0,
    "underConstruction": false
  },
  {
    "city": "LONDON",
    "greaterCityLocator": "N16",
    "latitude": "51.553552",
    "longitude": "-0.072458",
    "postCodes": null,
    "salesRepEmail": "dan.fuller@hyperoptic.com",
    "salesRepId": 65221,
    "salesRepName": "Dan Fuller",
    "salesRepPhone": "+44 7825 755 220",
    "siteId": 3277826163,
    "siteName": "Olympic House",
    "status": "Taking orders",
    "statusId": 0,
    "underConstruction": false
  },
  {
    "city": "LONDON",
    "greaterCityLocator": "N17",
    "latitude": "51.588873",
    "longitude": "-0.057133",
    "postCodes": null,
    "salesRepEmail": "dan.fuller@hyperoptic.com",
    "salesRepId": 65221,
    "salesRepName": "Dan Fuller",
    "salesRepPhone": "+44 7825 755 220",
    "siteId": 3277826235,
    "siteName": "Merlin & Crane Heights",
    "status": "Taking orders",
    "statusId": 0,
    "underConstruction": false
  },
  {
    "city": "LONDON",
    "greaterCityLocator": "N17",
    "latitude": "51.598906",
    "longitude": "-0.092601",
    "postCodes": null,
    "salesRepEmail": "dan.fuller@hyperoptic.com",
    "salesRepId": 65221,
    "salesRepName": "Dan Fuller",
    "salesRepPhone": "+44 7825 755 220",
    "siteId": 3277826277,
    "siteName": "1 The Roundway & Angel Court",
    "status": "Taking orders",
    "statusId": 0,
    "underConstruction": false
  },
  {
    "city": "LONDON",
    "greaterCityLocator": "N6",
    "latitude": "51.573957",
    "longitude": "-0.132567",
    "postCodes": null,
    "salesRepEmail": "sam.smith@hyperoptic.com",
    "salesRepId": 177307,
    "salesRepName": "Sam Smith",
    "salesRepPhone": "+44 7931 336 669",
    "siteId": 3277826479,
    "siteName": "Roden Court",
    "status": "Taking orders",
    "statusId": 0,
    "underConstruction": false
  },
  {
    "city": "LONDON",
    "greaterCityLocator": "N7",
    "latitude": "51.551367",
    "longitude": "-0.115087",
    "postCodes": null,
    "salesRepEmail": "sam.smith@hyperoptic.com",
    "salesRepId": 177307,
    "salesRepName": "Sam Smith",
    "salesRepPhone": "+44 7931 336 669",
    "siteId": 3277826565,
    "siteName": "9-17 Hornsey Street",
    "status": "Taking orders",
    "statusId": 0,
    "underConstruction": false
  },
  {
    "city": "LONDON",
    "greaterCityLocator": "NW1",
    "latitude": "51.524113",
    "longitude": "-0.159416",
    "postCodes": null,
    "salesRepEmail": "sam.smith@hyperoptic.com",
    "salesRepId": 177307,
    "salesRepName": "Sam Smith",
    "salesRepPhone": "+44 7931 336 669",
    "siteId": 3277827271,
    "siteName": "Clarence Gate Gardens",
    "status": "Taking orders",
    "statusId": 0,
    "underConstruction": false
  },
  {
    "city": "LONDON",
    "greaterCityLocator": "NW1",
    "latitude": "51.522962",
    "longitude": "-0.15596",
    "postCodes": null,
    "salesRepEmail": "sam.smith@hyperoptic.com",
    "salesRepId": 177307,
    "salesRepName": "Sam Smith",
    "salesRepPhone": "+44 7931 336 669",
    "siteId": 3277827289,
    "siteName": "Farley Court",
    "status": "Taking orders",
    "statusId": 0,
    "underConstruction": false
  },
  {
    "city": "LONDON",
    "greaterCityLocator": "NW1",
    "latitude": "51.524763",
    "longitude": "-0.143014",
    "postCodes": null,
    "salesRepEmail": "sam.smith@hyperoptic.com",
    "salesRepId": 177307,
    "salesRepName": "Sam Smith",
    "salesRepPhone": "+44 7931 336 669",
    "siteId": 3277827377,
    "siteName": "1 Osnaburgh Street",
    "status": "Taking orders",
    "statusId": 0,
    "underConstruction": false
  },
  {
    "city": "LONDON",
    "greaterCityLocator": "NW10",
    "latitude": "51.549072",
    "longitude": "-0.246578",
    "postCodes": null,
    "salesRepEmail": "jeremy.domantay@hyperoptic.com",
    "salesRepId": 68249,
    "salesRepName": "Jeremy Domantay",
    "salesRepPhone": "+44 7931 542 348",
    "siteId": 3277827407,
    "siteName": "Hornby Court",
    "status": "Taking orders",
    "statusId": 0,
    "underConstruction": false
  },
  {
    "city": "LONDON",
    "greaterCityLocator": "NW10",
    "latitude": "51.53284",
    "longitude": "-0.26831",
    "postCodes": null,
    "salesRepEmail": "Frances.Barnes@hyperoptic.com",
    "salesRepId": 177318,
    "salesRepName": "Frances Barnes",
    "salesRepPhone": "+44 7783 643 943",
    "siteId": 3277827417,
    "siteName": "Luma Apartments, Aurora House and Stella Court",
    "status": "Taking orders",
    "statusId": 0,
    "underConstruction": false
  },
  {
    "city": "LONDON",
    "greaterCityLocator": "NW3",
    "latitude": "51.54218",
    "longitude": "-0.174464",
    "postCodes": null,
    "salesRepEmail": "sam.smith@hyperoptic.com",
    "salesRepId": 177307,
    "salesRepName": "Sam Smith",
    "salesRepPhone": "+44 7931 336 669",
    "siteId": 3277827551,
    "siteName": "Regency Lodge",
    "status": "Taking orders",
    "statusId": 0,
    "underConstruction": false
  },
  {
    "city": "LONDON",
    "greaterCityLocator": "NW6",
    "latitude": "51.53489",
    "longitude": "-0.187401",
    "postCodes": null,
    "salesRepEmail": "sam.smith@hyperoptic.com",
    "salesRepId": 177307,
    "salesRepName": "Sam Smith",
    "salesRepPhone": "+44 7931 336 669",
    "siteId": 3277827693,
    "siteName": "Greville Hall",
    "status": "Taking orders",
    "statusId": 0,
    "underConstruction": false
  },
  {
    "city": "LONDON",
    "greaterCityLocator": "NW8",
    "latitude": "51.531927",
    "longitude": "-0.177801",
    "postCodes": null,
    "salesRepEmail": "sam.smith@hyperoptic.com",
    "salesRepId": 177307,
    "salesRepName": "Sam Smith",
    "salesRepPhone": "+44 7931 336 669",
    "siteId": 3277827777,
    "siteName": "Abbey House",
    "status": "Taking orders",
    "statusId": 0,
    "underConstruction": false
  },
  {
    "city": "LONDON",
    "greaterCityLocator": "NW8",
    "latitude": "51.527998",
    "longitude": "-0.164565",
    "postCodes": null,
    "salesRepEmail": "sam.smith@hyperoptic.com",
    "salesRepId": 177307,
    "salesRepName": "Sam Smith",
    "salesRepPhone": "+44 7931 336 669",
    "siteId": 3277827779,
    "siteName": "Abbey Lodge",
    "status": "Taking orders",
    "statusId": 0,
    "underConstruction": false
  },
  {
    "city": "LONDON",
    "greaterCityLocator": "NW8",
    "latitude": "51.530434",
    "longitude": "-0.175453",
    "postCodes": null,
    "salesRepEmail": "sam.smith@hyperoptic.com",
    "salesRepId": 177307,
    "salesRepName": "Sam Smith",
    "salesRepPhone": "+44 7931 336 669",
    "siteId": 3277827781,
    "siteName": "Addison House",
    "status": "Taking orders",
    "statusId": 0,
    "underConstruction": false
  },
  {
    "city": "LONDON",
    "greaterCityLocator": "NW8",
    "latitude": "51.529148",
    "longitude": "-0.167373",
    "postCodes": null,
    "salesRepEmail": "sam.smith@hyperoptic.com",
    "salesRepId": 177307,
    "salesRepName": "Sam Smith",
    "salesRepPhone": "+44 7931 336 669",
    "siteId": 3277827791,
    "siteName": "Beverly House",
    "status": "Taking orders",
    "statusId": 0,
    "underConstruction": false
  },
  {
    "city": "LONDON",
    "greaterCityLocator": "NW8",
    "latitude": "51.531926",
    "longitude": "-0.171933",
    "postCodes": null,
    "salesRepEmail": "sam.smith@hyperoptic.com",
    "salesRepId": 177307,
    "salesRepName": "Sam Smith",
    "salesRepPhone": "+44 7931 336 669",
    "siteId": 3277827801,
    "siteName": "Cavendish House",
    "status": "Taking orders",
    "statusId": 0,
    "underConstruction": false
  },
  {
    "city": "LONDON",
    "greaterCityLocator": "NW8",
    "latitude": "51.532016",
    "longitude": "-0.168498",
    "postCodes": null,
    "salesRepEmail": "sam.smith@hyperoptic.com",
    "salesRepId": 177307,
    "salesRepName": "Sam Smith",
    "salesRepPhone": "+44 7931 336 669",
    "siteId": 3277827827,
    "siteName": "Hanover House",
    "status": "Taking orders",
    "statusId": 0,
    "underConstruction": false
  },
  {
    "city": "LONDON",
    "greaterCityLocator": "NW8",
    "latitude": "51.528173",
    "longitude": "-0.168306",
    "postCodes": null,
    "salesRepEmail": "sam.smith@hyperoptic.com",
    "salesRepId": 177307,
    "salesRepName": "Sam Smith",
    "salesRepPhone": "+44 7931 336 669",
    "siteId": 3277827865,
    "siteName": "Regent Court,North Bank",
    "status": "Taking orders",
    "statusId": 0,
    "underConstruction": false
  },
  {
    "city": "LONDON",
    "greaterCityLocator": "NW9",
    "latitude": "51.577316",
    "longitude": "-0.242923",
    "postCodes": null,
    "salesRepEmail": "adam.anderson@hyperoptic.com",
    "salesRepId": 97701,
    "salesRepName": "Adam Anderson",
    "salesRepPhone": "+44 7734 680 938",
    "siteId": 3277827907,
    "siteName": "Goshawk Court",
    "status": "Taking orders",
    "statusId": 0,
    "underConstruction": false
  },
  {
    "city": "LONDON",
    "greaterCityLocator": "NW9",
    "latitude": "51.592479",
    "longitude": "-0.257554",
    "postCodes": null,
    "salesRepEmail": "Frances.Barnes@hyperoptic.com",
    "salesRepId": 177318,
    "salesRepName": "Frances Barnes",
    "salesRepPhone": "+44 7783 643 943",
    "siteId": 3277827921,
    "siteName": "Warneford Court",
    "status": "Taking orders",
    "statusId": 0,
    "underConstruction": false
  },
  {
    "city": "LONDON",
    "greaterCityLocator": "W12",
    "latitude": "51.516412",
    "longitude": "-0.228649",
    "postCodes": null,
    "salesRepEmail": "Frances.Barnes@hyperoptic.com",
    "salesRepId": 177318,
    "salesRepName": "Frances Barnes",
    "salesRepPhone": "+44 7783 643 943",
    "siteId": 3277833027,
    "siteName": "Holst House",
    "status": "Taking orders",
    "statusId": 0,
    "underConstruction": false
  },
  {
    "city": "LONDON",
    "greaterCityLocator": "W12",
    "latitude": "51.51654",
    "longitude": "-0.228226",
    "postCodes": null,
    "salesRepEmail": "Frances.Barnes@hyperoptic.com",
    "salesRepId": 177318,
    "salesRepName": "Frances Barnes",
    "salesRepPhone": "+44 7783 643 943",
    "siteId": 3277833043,
    "siteName": "Pankhurst House",
    "status": "Taking orders",
    "statusId": 0,
    "underConstruction": false
  },
  {
    "city": "LONDON",
    "greaterCityLocator": "W1H",
    "latitude": "51.519007",
    "longitude": "-0.162346",
    "postCodes": null,
    "salesRepEmail": "sam.smith@hyperoptic.com",
    "salesRepId": 177307,
    "salesRepName": "Sam Smith",
    "salesRepPhone": "+44 7931 336 669",
    "siteId": 3277833145,
    "siteName": "Clarewood Court",
    "status": "Taking orders",
    "statusId": 0,
    "underConstruction": false
  },
  {
    "city": "LONDON",
    "greaterCityLocator": "W1H",
    "latitude": "51.517415",
    "longitude": "-0.163491",
    "postCodes": null,
    "salesRepEmail": "Frances.Barnes@hyperoptic.com",
    "salesRepId": 177318,
    "salesRepName": "Frances Barnes",
    "salesRepPhone": "+44 7783 643 943",
    "siteId": 3277833153,
    "siteName": "Marble Arch Apartments",
    "status": "Taking orders",
    "statusId": 0,
    "underConstruction": false
  },
  {
    "city": "LONDON",
    "greaterCityLocator": "W1U",
    "latitude": "51.52148",
    "longitude": "-0.158398",
    "postCodes": null,
    "salesRepEmail": "Frances.Barnes@hyperoptic.com",
    "salesRepId": 177318,
    "salesRepName": "Frances Barnes",
    "salesRepPhone": "+44 7783 643 943",
    "siteId": 3277833183,
    "siteName": "Bickenhall Mansions",
    "status": "Taking orders",
    "statusId": 0,
    "underConstruction": false
  },
  {
    "city": "LONDON",
    "greaterCityLocator": "W1U",
    "latitude": "51.519502",
    "longitude": "-0.154932",
    "postCodes": null,
    "salesRepEmail": "Frances.Barnes@hyperoptic.com",
    "salesRepId": 177318,
    "salesRepName": "Frances Barnes",
    "salesRepPhone": "+44 7783 643 943",
    "siteId": 3277833189,
    "siteName": "Wendover Court,Chiltern Street",
    "status": "Taking orders",
    "statusId": 0,
    "underConstruction": false
  },
  {
    "city": "LONDON",
    "greaterCityLocator": "W1U",
    "latitude": "51.518899",
    "longitude": "-0.153183",
    "postCodes": null,
    "salesRepEmail": "sam.smith@hyperoptic.com",
    "salesRepId": 177307,
    "salesRepName": "Sam Smith",
    "salesRepPhone": "+44 7931 336 669",
    "siteId": 3277833191,
    "siteName": "Faraday House",
    "status": "Taking orders",
    "statusId": 0,
    "underConstruction": false
  },
  {
    "city": "LONDON",
    "greaterCityLocator": "W2",
    "latitude": "51.515966",
    "longitude": "-0.167455",
    "postCodes": null,
    "salesRepEmail": "jeremy.domantay@hyperoptic.com",
    "salesRepId": 68249,
    "salesRepName": "Jeremy Domantay",
    "salesRepPhone": "+44 7931 542 348",
    "siteId": 3277833277,
    "siteName": "Raynham",
    "status": "Taking orders",
    "statusId": 0,
    "underConstruction": false
  },
  {
    "city": "LONDON",
    "greaterCityLocator": "W2",
    "latitude": "51.517509",
    "longitude": "-0.182844",
    "postCodes": null,
    "salesRepEmail": "jeremy.domantay@hyperoptic.com",
    "salesRepId": 68249,
    "salesRepName": "Jeremy Domantay",
    "salesRepPhone": "+44 7931 542 348",
    "siteId": 3277833281,
    "siteName": "Trinity Court",
    "status": "Taking orders",
    "statusId": 0,
    "underConstruction": false
  },
  {
    "city": "LONDON",
    "greaterCityLocator": "W9",
    "latitude": "51.529742",
    "longitude": "-0.188283",
    "postCodes": null,
    "salesRepEmail": "jeremy.domantay@hyperoptic.com",
    "salesRepId": 68249,
    "salesRepName": "Jeremy Domantay",
    "salesRepPhone": "+44 7931 542 348",
    "siteId": 3277833463,
    "siteName": "Ashworth Mansions",
    "status": "Taking orders",
    "statusId": 0,
    "underConstruction": false
  },
  {
    "city": "LONDON",
    "greaterCityLocator": "W9",
    "latitude": "51.528419",
    "longitude": "-0.188797",
    "postCodes": null,
    "salesRepEmail": "jeremy.domantay@hyperoptic.com",
    "salesRepId": 68249,
    "salesRepName": "Jeremy Domantay",
    "salesRepPhone": "+44 7931 542 348",
    "siteId": 3277833465,
    "siteName": "Biddulph Mansions",
    "status": "Taking orders",
    "statusId": 0,
    "underConstruction": false
  },
  {
    "city": "LONDON",
    "greaterCityLocator": "W9",
    "latitude": "51.527063",
    "longitude": "-0.190047",
    "postCodes": null,
    "salesRepEmail": "jeremy.domantay@hyperoptic.com",
    "salesRepId": 68249,
    "salesRepName": "Jeremy Domantay",
    "salesRepPhone": "+44 7931 542 348",
    "siteId": 3277833469,
    "siteName": "Castellain Mansions",
    "status": "Taking orders",
    "statusId": 0,
    "underConstruction": false
  },
  {
    "city": "LONDON",
    "greaterCityLocator": "W9",
    "latitude": "51.528831",
    "longitude": "-0.189213",
    "postCodes": null,
    "salesRepEmail": "jeremy.domantay@hyperoptic.com",
    "salesRepId": 68249,
    "salesRepName": "Jeremy Domantay",
    "salesRepPhone": "+44 7931 542 348",
    "siteId": 3277833483,
    "siteName": "Elgin Mansions",
    "status": "Taking orders",
    "statusId": 0,
    "underConstruction": false
  },
  {
    "city": "LONDON",
    "greaterCityLocator": "W9",
    "latitude": "51.528789",
    "longitude": "-0.192905",
    "postCodes": null,
    "salesRepEmail": "Frances.Barnes@hyperoptic.com",
    "salesRepId": 177318,
    "salesRepName": "Frances Barnes",
    "salesRepPhone": "+44 7783 643 943",
    "siteId": 3277833501,
    "siteName": "Morshead Mansions",
    "status": "Taking orders",
    "statusId": 0,
    "underConstruction": false
  },
  {
    "city": "LONDON",
    "greaterCityLocator": "W9",
    "latitude": "51.530668",
    "longitude": "-0.183589",
    "postCodes": null,
    "salesRepEmail": "jeremy.domantay@hyperoptic.com",
    "salesRepId": 68249,
    "salesRepName": "Jeremy Domantay",
    "salesRepPhone": "+44 7931 542 348",
    "siteId": 3277833511,
    "siteName": "Wellesley Court",
    "status": "Taking orders",
    "statusId": 0,
    "underConstruction": false
  },
  {
    "city": "LONDON",
    "greaterCityLocator": "WC1E",
    "latitude": "51.523336",
    "longitude": "-0.136397",
    "postCodes": null,
    "salesRepEmail": "jeremy.domantay@hyperoptic.com",
    "salesRepId": 68249,
    "salesRepName": "Jeremy Domantay",
    "salesRepPhone": "+44 7931 542 348",
    "siteId": 3277833573,
    "siteName": "Paramount Court",
    "status": "Taking orders",
    "statusId": 0,
    "underConstruction": false
  },
  {
    "city": "LONDON",
    "greaterCityLocator": "WC1X",
    "latitude": "51.525522",
    "longitude": "-0.116731",
    "postCodes": null,
    "salesRepEmail": "jeremy.domantay@hyperoptic.com",
    "salesRepId": 68249,
    "salesRepName": "Jeremy Domantay",
    "salesRepPhone": "+44 7931 542 348",
    "siteId": 3277833639,
    "siteName": "Trinity Court,Grays Inn Road",
    "status": "Taking orders",
    "statusId": 0,
    "underConstruction": false
  },
  {
    "city": "LONDON",
    "greaterCityLocator": "NW9",
    "latitude": "51.579805",
    "longitude": "-0.243433",
    "postCodes": null,
    "salesRepEmail": "adam.anderson@hyperoptic.com",
    "salesRepId": 97701,
    "salesRepName": "Adam Anderson",
    "salesRepPhone": "+44 7734 680 938",
    "siteId": 3277834145,
    "siteName": "Hendon Lakeside",
    "status": "Taking orders",
    "statusId": 0,
    "underConstruction": true
  },
  {
    "city": "LONDON",
    "greaterCityLocator": "W1U",
    "latitude": "51.520816",
    "longitude": "-0.15387",
    "postCodes": null,
    "salesRepEmail": "ben.squire@hyperoptic.com",
    "salesRepId": 68216,
    "salesRepName": "Ben Squire",
    "salesRepPhone": "+44 7725 247 974",
    "siteId": 3277834241,
    "siteName": "The Chilterns",
    "status": "Taking orders",
    "statusId": 0,
    "underConstruction": true
  },
  {
    "city": "LONDON",
    "greaterCityLocator": "E14",
    "latitude": "51.520825",
    "longitude": "-0.010877",
    "postCodes": null,
    "salesRepEmail": "ben.squire@hyperoptic.com",
    "salesRepId": 68216,
    "salesRepName": "Ben Squire",
    "salesRepPhone": "+44 7725 247 974",
    "siteId": 3277834400,
    "siteName": "Lime Quay",
    "status": "Taking orders",
    "statusId": 0,
    "underConstruction": true
  },
  {
    "city": "LONDON",
    "greaterCityLocator": "E14",
    "latitude": "51.516899",
    "longitude": "-0.022276",
    "postCodes": null,
    "salesRepEmail": "dan.fuller@hyperoptic.com",
    "salesRepId": 65221,
    "salesRepName": "Dan Fuller",
    "salesRepPhone": "+44 7825 755 220",
    "siteId": 3277834558,
    "siteName": "Silver Wharf",
    "status": "Taking orders",
    "statusId": 0,
    "underConstruction": false
  },
  {
    "city": "LONDON",
    "greaterCityLocator": "N15",
    "latitude": "51.586076",
    "longitude": "-0.078357",
    "postCodes": null,
    "salesRepEmail": "ben.squire@hyperoptic.com",
    "salesRepId": 68216,
    "salesRepName": "Ben Squire",
    "salesRepPhone": "+44 7725 247 974",
    "siteId": 3277834620,
    "siteName": "Lawrence Square",
    "status": "Taking orders",
    "statusId": 0,
    "underConstruction": false
  },
  {
    "city": "LONDON",
    "greaterCityLocator": "N7",
    "latitude": "51.544692",
    "longitude": "-0.10932",
    "postCodes": null,
    "salesRepEmail": "david.lewis@hyperoptic.com",
    "salesRepId": 24396,
    "salesRepName": "Dave Lewis",
    "salesRepPhone": "+44 7728 819 657",
    "siteId": 3277834714,
    "siteName": "Arundel Square",
    "status": "Taking orders",
    "statusId": 0,
    "underConstruction": false
  },
  {
    "city": "LONDON",
    "greaterCityLocator": "NW10",
    "latitude": "51.54364",
    "longitude": "-0.255627",
    "postCodes": null,
    "salesRepEmail": "jeremy.domantay@hyperoptic.com",
    "salesRepId": 68249,
    "salesRepName": "Jeremy Domantay",
    "salesRepPhone": "+44 7931 542 348",
    "siteId": 3277834848,
    "siteName": "Craven Park (Church End Estate)",
    "status": "Taking orders",
    "statusId": 0,
    "underConstruction": false
  },
  {
    "city": "LONDON",
    "greaterCityLocator": "E3",
    "latitude": "51.531499",
    "longitude": "-0.023114",
    "postCodes": null,
    "salesRepEmail": "dan.fuller@hyperoptic.com",
    "salesRepId": 65221,
    "salesRepName": "Dan Fuller",
    "salesRepPhone": "+44 7825 755 220",
    "siteId": 3277835010,
    "siteName": "Now Bow",
    "status": "Taking orders",
    "statusId": 0,
    "underConstruction": false
  },
  {
    "city": "LONDON",
    "greaterCityLocator": "NW2",
    "latitude": "51.56224",
    "longitude": "-0.240185",
    "postCodes": null,
    "salesRepEmail": "Frances.Barnes@hyperoptic.com",
    "salesRepId": 177318,
    "salesRepName": "Frances Barnes",
    "salesRepPhone": "+44 7783 643 943",
    "siteId": 3277835086,
    "siteName": "Langhorne Place",
    "status": "Taking orders",
    "statusId": 0,
    "underConstruction": false
  },
  {
    "city": "LONDON",
    "greaterCityLocator": "N1",
    "latitude": "51.548179",
    "longitude": "-0.08594",
    "postCodes": null,
    "salesRepEmail": "dan.fuller@hyperoptic.com",
    "salesRepId": 65221,
    "salesRepName": "Dan Fuller",
    "salesRepPhone": "+44 7825 755 220",
    "siteId": 3277835128,
    "siteName": "Mildmay Avenue",
    "status": "Taking orders",
    "statusId": 0,
    "underConstruction": false
  },
  {
    "city": "LONDON",
    "greaterCityLocator": "N1",
    "latitude": "51.530525",
    "longitude": "-0.085268",
    "postCodes": null,
    "salesRepEmail": "james.prowse@hyperoptic.com",
    "salesRepId": 64897,
    "salesRepName": "James Prowse",
    "salesRepPhone": "+44 7909 768 658",
    "siteId": 3277835258,
    "siteName": "The Bevenden, 15-29 New North Road",
    "status": "Taking orders",
    "statusId": 0,
    "underConstruction": true
  },
  {
    "city": "LONDON",
    "greaterCityLocator": "E13",
    "latitude": "51.522573",
    "longitude": "0.0163",
    "postCodes": null,
    "salesRepEmail": "steven.calder@hyperoptic.com",
    "salesRepId": 126984,
    "salesRepName": "Steven Calder",
    "salesRepPhone": "+44 7740 345 707",
    "siteId": 3277835278,
    "siteName": "Chargeable Lane",
    "status": "Taking orders",
    "statusId": 0,
    "underConstruction": false
  },
  {
    "city": "LONDON",
    "greaterCityLocator": "E17",
    "latitude": "51.600686",
    "longitude": "-0.025656",
    "postCodes": null,
    "salesRepEmail": "adam.anderson@hyperoptic.com",
    "salesRepId": 97701,
    "salesRepName": "Adam Anderson",
    "salesRepPhone": "+44 7734 680 938",
    "siteId": 3277835286,
    "siteName": "Banbury Park",
    "status": "Taking orders",
    "statusId": 0,
    "underConstruction": true
  },
  {
    "city": "LONDON",
    "greaterCityLocator": "NW9",
    "latitude": "51.595034",
    "longitude": "-0.260055",
    "postCodes": null,
    "salesRepEmail": "sam.smith@hyperoptic.com",
    "salesRepId": 177307,
    "salesRepName": "Sam Smith",
    "salesRepPhone": "+44 7931 336 669",
    "siteId": 3277835532,
    "siteName": "Green Point  (Mar House)",
    "status": "Taking orders",
    "statusId": 0,
    "underConstruction": false
  },
  {
    "city": "LONDON",
    "greaterCityLocator": "NW1",
    "latitude": "51.54159",
    "longitude": "-0.139762",
    "postCodes": null,
    "salesRepEmail": "ben.squire@hyperoptic.com",
    "salesRepId": 68216,
    "salesRepName": "Ben Squire",
    "salesRepPhone": "+44 7725 247 974",
    "siteId": 3277835809,
    "siteName": "Regent Canalside",
    "status": "Taking orders",
    "statusId": 0,
    "underConstruction": false
  },
  {
    "city": "LONDON",
    "greaterCityLocator": "E3",
    "latitude": "51.524912",
    "longitude": "-0.021266",
    "postCodes": null,
    "salesRepEmail": "ben.squire@hyperoptic.com",
    "salesRepId": 68216,
    "salesRepName": "Ben Squire",
    "salesRepPhone": "+44 7725 247 974",
    "siteId": 3277835831,
    "siteName": "St Clements",
    "status": "Taking orders",
    "statusId": 0,
    "underConstruction": true
  },
  {
    "city": "LONDON",
    "greaterCityLocator": "E3",
    "latitude": "51.531247",
    "longitude": "-0.019333",
    "postCodes": null,
    "salesRepEmail": "dan.fuller@hyperoptic.com",
    "salesRepId": 65221,
    "salesRepName": "Dan Fuller",
    "salesRepPhone": "+44 7825 755 220",
    "siteId": 3277835949,
    "siteName": "Thomas Fyre Drive",
    "status": "Taking orders",
    "statusId": 0,
    "underConstruction": false
  },
  {
    "city": "LONDON",
    "greaterCityLocator": "EC1V",
    "latitude": "51.526206",
    "longitude": "-0.097299",
    "postCodes": null,
    "salesRepEmail": "steven.calder@hyperoptic.com",
    "salesRepId": 126984,
    "salesRepName": "Steven Calder",
    "salesRepPhone": "+44 7740 345 707",
    "siteId": 3277836247,
    "siteName": "Dance Square",
    "status": "Taking orders",
    "statusId": 0,
    "underConstruction": false
  },
  {
    "city": "LONDON",
    "greaterCityLocator": "N1",
    "latitude": "51.530916",
    "longitude": "-0.097722",
    "postCodes": null,
    "salesRepEmail": "jeremy.domantay@hyperoptic.com",
    "salesRepId": 68249,
    "salesRepName": "Jeremy Domantay",
    "salesRepPhone": "+44 7931 542 348",
    "siteId": 3277836257,
    "siteName": "Angel Waterside",
    "status": "Taking orders",
    "statusId": 0,
    "underConstruction": false
  },
  {
    "city": "LONDON",
    "greaterCityLocator": "E1",
    "latitude": "51.520724",
    "longitude": "-0.038558",
    "postCodes": null,
    "salesRepEmail": "dan.fuller@hyperoptic.com",
    "salesRepId": 65221,
    "salesRepName": "Dan Fuller",
    "salesRepPhone": "+44 7825 755 220",
    "siteId": 3277836465,
    "siteName": "So Stepney",
    "status": "Taking orders",
    "statusId": 0,
    "underConstruction": false
  },
  {
    "city": "LONDON",
    "greaterCityLocator": "E5",
    "latitude": "51.56294",
    "longitude": "-0.049063",
    "postCodes": null,
    "salesRepEmail": "dan.fuller@hyperoptic.com",
    "salesRepId": 65221,
    "salesRepName": "Dan Fuller",
    "salesRepPhone": "+44 7825 755 220",
    "siteId": 3277836555,
    "siteName": "Southwold Road",
    "status": "Taking orders",
    "statusId": 0,
    "underConstruction": false
  },
  {
    "city": "LONDON",
    "greaterCityLocator": "NW6",
    "latitude": "51.53399",
    "longitude": "-0.202547",
    "postCodes": null,
    "salesRepEmail": "nicky.dorman@hyperoptic.com",
    "salesRepId": 79201,
    "salesRepName": "Nicky Dorman",
    "salesRepPhone": "+44 7918 748 744",
    "siteId": 3277836695,
    "siteName": "Queen's Park Place",
    "status": "Taking orders",
    "statusId": 0,
    "underConstruction": true
  },
  {
    "city": "LONDON",
    "greaterCityLocator": "E3",
    "latitude": "51.526619",
    "longitude": "-0.019577",
    "postCodes": null,
    "salesRepEmail": "ben.squire@hyperoptic.com",
    "salesRepId": 68216,
    "salesRepName": "Ben Squire",
    "salesRepPhone": "+44 7725 247 974",
    "siteId": 3277836741,
    "siteName": "Bellevue",
    "status": "Taking orders",
    "statusId": 0,
    "underConstruction": true
  },
  {
    "city": "LONDON",
    "greaterCityLocator": "E2",
    "latitude": "51.5349",
    "longitude": "-0.061437",
    "postCodes": null,
    "salesRepEmail": "shay.gujral@hyperoptic.com",
    "salesRepId": 71496,
    "salesRepName": "Shay Gujral",
    "salesRepPhone": null,
    "siteId": 3277836835,
    "siteName": "Wharf Place",
    "status": "Taking orders",
    "statusId": 0,
    "underConstruction": false
  },
  {
    "city": "LONDON",
    "greaterCityLocator": "W1T",
    "latitude": "51.517612",
    "longitude": "-0.134383",
    "postCodes": null,
    "salesRepEmail": "nicky.dorman@hyperoptic.com",
    "salesRepId": 79201,
    "salesRepName": "Nicky Dorman",
    "salesRepPhone": "+44 7918 748 744",
    "siteId": 3277836881,
    "siteName": "35-50 Rathbone Place, W1T",
    "status": "Taking orders",
    "statusId": 0,
    "underConstruction": true
  },
  {
    "city": "LONDON",
    "greaterCityLocator": "E14",
    "latitude": "51.515487",
    "longitude": "-0.023317",
    "postCodes": null,
    "salesRepEmail": "steven.calder@hyperoptic.com",
    "salesRepId": 126984,
    "salesRepName": "Steven Calder",
    "salesRepPhone": "+44 7740 345 707",
    "siteId": 3277837015,
    "siteName": "The Boathouse",
    "status": "Taking orders",
    "statusId": 0,
    "underConstruction": false
  },
  {
    "city": "LONDON",
    "greaterCityLocator": "N1",
    "latitude": "51.538106",
    "longitude": "-0.085815",
    "postCodes": null,
    "salesRepEmail": "dan.fuller@hyperoptic.com",
    "salesRepId": 65221,
    "salesRepName": "Dan Fuller",
    "salesRepPhone": "+44 7825 755 220",
    "siteId": 3277837097,
    "siteName": "One N One",
    "status": "Taking orders",
    "statusId": 0,
    "underConstruction": false
  },
  {
    "city": "LONDON",
    "greaterCityLocator": "E3",
    "latitude": "51.527269",
    "longitude": "-0.019708",
    "postCodes": null,
    "salesRepEmail": "shay.gujral@hyperoptic.com",
    "salesRepId": 71496,
    "salesRepName": "Shay Gujral",
    "salesRepPhone": null,
    "siteId": 3277837191,
    "siteName": "Bow Cross Estate",
    "status": "Taking orders",
    "statusId": 0,
    "underConstruction": false
  },
  {
    "city": "LONDON",
    "greaterCityLocator": "N15",
    "latitude": "51.587298",
    "longitude": "-0.07448",
    "postCodes": null,
    "salesRepEmail": "dan.fuller@hyperoptic.com",
    "salesRepId": 65221,
    "salesRepName": "Dan Fuller",
    "salesRepPhone": "+44 7825 755 220",
    "siteId": 3277837393,
    "siteName": "Tottenham Town hall",
    "status": "Taking orders",
    "statusId": 0,
    "underConstruction": false
  },
  {
    "city": "LONDON",
    "greaterCityLocator": "E2",
    "latitude": "51.525095",
    "longitude": "-0.056952",
    "postCodes": null,
    "salesRepEmail": "dan.fuller@hyperoptic.com",
    "salesRepId": 65221,
    "salesRepName": "Dan Fuller",
    "salesRepPhone": "+44 7825 755 220",
    "siteId": 3277837567,
    "siteName": "Mint Street Apartments",
    "status": "Taking orders",
    "statusId": 0,
    "underConstruction": false
  },
  {
    "city": "LONDON",
    "greaterCityLocator": "E3",
    "latitude": "51.524498",
    "longitude": "-0.008987",
    "postCodes": null,
    "salesRepEmail": "steven.calder@hyperoptic.com",
    "salesRepId": 126984,
    "salesRepName": "Steven Calder",
    "salesRepPhone": "+44 7740 345 707",
    "siteId": 3277837593,
    "siteName": "Maltings Close",
    "status": "Taking orders",
    "statusId": 0,
    "underConstruction": false
  },
  {
    "city": "LONDON",
    "greaterCityLocator": "E15",
    "latitude": "51.536852",
    "longitude": "-0.000431",
    "postCodes": null,
    "salesRepEmail": "dan.fuller@hyperoptic.com",
    "salesRepId": 65221,
    "salesRepName": "Dan Fuller",
    "salesRepPhone": "+44 7825 755 220",
    "siteId": 3277837659,
    "siteName": "Victoria Mills",
    "status": "Taking orders",
    "statusId": 0,
    "underConstruction": false
  },
  {
    "city": "LONDON",
    "greaterCityLocator": "N4",
    "latitude": "51.571823",
    "longitude": "-0.088324",
    "postCodes": null,
    "salesRepEmail": "mark.farndale@hyperoptic.com",
    "salesRepId": 184084,
    "salesRepName": "Mark Farndale",
    "salesRepPhone": null,
    "siteId": 3277837739,
    "siteName": "Woodberry Down",
    "status": "Taking orders",
    "statusId": 0,
    "underConstruction": false
  },
  {
    "city": "LONDON",
    "greaterCityLocator": "NW1",
    "latitude": "51.523195",
    "longitude": "-0.153615",
    "postCodes": null,
    "salesRepEmail": "sam.smith@hyperoptic.com",
    "salesRepId": 177307,
    "salesRepName": "Sam Smith",
    "salesRepPhone": "+44 7931 336 669",
    "siteId": 3277837757,
    "siteName": "Nottingham Terrace",
    "status": "Taking orders",
    "statusId": 0,
    "underConstruction": false
  },
  {
    "city": "LONDON",
    "greaterCityLocator": "NW9",
    "latitude": "51.578101",
    "longitude": "-0.241319",
    "postCodes": null,
    "salesRepEmail": "adam.anderson@hyperoptic.com",
    "salesRepId": 97701,
    "salesRepName": "Adam Anderson",
    "salesRepPhone": "+44 7734 680 938",
    "siteId": 3277837825,
    "siteName": "West Hendon",
    "status": "Taking orders",
    "statusId": 0,
    "underConstruction": true
  },
  {
    "city": "LONDON",
    "greaterCityLocator": "E15",
    "latitude": "51.545026",
    "longitude": "0.001716",
    "postCodes": null,
    "salesRepEmail": "steven.calder@hyperoptic.com",
    "salesRepId": 126984,
    "salesRepName": "Steven Calder",
    "salesRepPhone": "+44 7740 345 707",
    "siteId": 3277838639,
    "siteName": "Granary Court",
    "status": "Going live",
    "statusId": 3,
    "underConstruction": false
  },
  {
    "city": "LONDON",
    "greaterCityLocator": "N1",
    "latitude": "51.527724",
    "longitude": "-0.078941",
    "postCodes": null,
    "salesRepEmail": "steven.calder@hyperoptic.com",
    "salesRepId": 126984,
    "salesRepName": "Steven Calder",
    "salesRepPhone": "+44 7740 345 707",
    "siteId": 3277838647,
    "siteName": "The Timber Yard",
    "status": "Taking orders",
    "statusId": 0,
    "underConstruction": false
  },
  {
    "city": "LONDON",
    "greaterCityLocator": "E1",
    "latitude": "51.518087",
    "longitude": "-0.036249",
    "postCodes": null,
    "salesRepEmail": "dan.fuller@hyperoptic.com",
    "salesRepId": 65221,
    "salesRepName": "Dan Fuller",
    "salesRepPhone": "+44 7825 755 220",
    "siteId": 3277838711,
    "siteName": "Bootmakers Court",
    "status": "Taking orders",
    "statusId": 0,
    "underConstruction": false
  },
  {
    "city": "LONDON",
    "greaterCityLocator": "E1",
    "latitude": "51.515874",
    "longitude": "-0.068125",
    "postCodes": null,
    "salesRepEmail": "dan.fuller@hyperoptic.com",
    "salesRepId": 65221,
    "salesRepName": "Dan Fuller",
    "salesRepPhone": "+44 7825 755 220",
    "siteId": 3277838727,
    "siteName": "Aldgate Triangle",
    "status": "Taking orders",
    "statusId": 0,
    "underConstruction": false
  },
  {
    "city": "LONDON",
    "greaterCityLocator": "E8",
    "latitude": "51.549015",
    "longitude": "-0.060173",
    "postCodes": null,
    "salesRepEmail": "dan.fuller@hyperoptic.com",
    "salesRepId": 65221,
    "salesRepName": "Dan Fuller",
    "salesRepPhone": "+44 7825 755 220",
    "siteId": 3277838747,
    "siteName": "Eastside Academy",
    "status": "Taking orders",
    "statusId": 0,
    "underConstruction": false
  },
  {
    "city": "LONDON",
    "greaterCityLocator": "NW10",
    "latitude": "51.530027",
    "longitude": "-0.248478",
    "postCodes": null,
    "salesRepEmail": "brian.doherty@hyperoptic.com",
    "salesRepId": 25177,
    "salesRepName": "Brian Doherty",
    "salesRepPhone": "+44 7775 625 028",
    "siteId": 3277838939,
    "siteName": "The Collective Old Oak",
    "status": "Taking orders",
    "statusId": 0,
    "underConstruction": true
  },
  {
    "city": "LONDON",
    "greaterCityLocator": "N4",
    "latitude": "51.576106",
    "longitude": "-0.097279",
    "postCodes": null,
    "salesRepEmail": "adam.anderson@hyperoptic.com",
    "salesRepId": 97701,
    "salesRepName": "Adam Anderson",
    "salesRepPhone": "+44 7734 680 938",
    "siteId": 3277839039,
    "siteName": "woodberry Down",
    "status": "Taking orders",
    "statusId": 0,
    "underConstruction": true
  },
  {
    "city": "LONDON",
    "greaterCityLocator": "E3",
    "latitude": "51.530327",
    "longitude": "-0.022401",
    "postCodes": null,
    "salesRepEmail": "ben.squire@hyperoptic.com",
    "salesRepId": 68216,
    "salesRepName": "Ben Squire",
    "salesRepPhone": "+44 7725 247 974",
    "siteId": 3277839067,
    "siteName": "Polydamas Close",
    "status": "Taking orders",
    "statusId": 0,
    "underConstruction": false
  },
  {
    "city": "LONDON",
    "greaterCityLocator": "E1",
    "latitude": "51.516376",
    "longitude": "-0.050102",
    "postCodes": null,
    "salesRepEmail": "ben.squire@hyperoptic.com",
    "salesRepId": 68216,
    "salesRepName": "Ben Squire",
    "salesRepPhone": "+44 7725 247 974",
    "siteId": 3277839079,
    "siteName": "Exmouth Estate",
    "status": "Taking orders",
    "statusId": 0,
    "underConstruction": false
  },
  {
    "city": "LONDON",
    "greaterCityLocator": "NW5",
    "latitude": "51.553357",
    "longitude": "-0.14345",
    "postCodes": null,
    "salesRepEmail": "ben.squire@hyperoptic.com",
    "salesRepId": 68216,
    "salesRepName": "Ben Squire",
    "salesRepPhone": "+44 7725 247 974",
    "siteId": 3277839137,
    "siteName": "The Maple Building",
    "status": "Taking orders",
    "statusId": 0,
    "underConstruction": true
  },
  {
    "city": "LONDON",
    "greaterCityLocator": "NW1",
    "latitude": "51.539707",
    "longitude": "-0.134964",
    "postCodes": null,
    "salesRepEmail": "sam.smith@hyperoptic.com",
    "salesRepId": 177307,
    "salesRepName": "Sam Smith",
    "salesRepPhone": "+44 7931 336 669",
    "siteId": 3277839295,
    "siteName": "Star Wharf",
    "status": "Going live",
    "statusId": 3,
    "underConstruction": false
  },
  {
    "city": "LONDON",
    "greaterCityLocator": "N4",
    "latitude": "51.567233",
    "longitude": "-0.093595",
    "postCodes": null,
    "salesRepEmail": "sam.smith@hyperoptic.com",
    "salesRepId": 177307,
    "salesRepName": "Sam Smith",
    "salesRepPhone": "+44 7931 336 669",
    "siteId": 3277839335,
    "siteName": "Aqua - Fairview",
    "status": "Taking orders",
    "statusId": 0,
    "underConstruction": false
  },
  {
    "city": "LONDON",
    "greaterCityLocator": "E3",
    "latitude": "51.532354",
    "longitude": "-0.020986",
    "postCodes": null,
    "salesRepEmail": "dan.fuller@hyperoptic.com",
    "salesRepId": 65221,
    "salesRepName": "Dan Fuller",
    "salesRepPhone": "+44 7825 755 220",
    "siteId": 3277839525,
    "siteName": "The Bow Quarter Park Buildings",
    "status": "Taking orders",
    "statusId": 0,
    "underConstruction": false
  },
  {
    "city": "LONDON",
    "greaterCityLocator": "E5",
    "latitude": "51.561351",
    "longitude": "-0.045452",
    "postCodes": null,
    "salesRepEmail": "dan.fuller@hyperoptic.com",
    "salesRepId": 65221,
    "salesRepName": "Dan Fuller",
    "salesRepPhone": "+44 7825 755 220",
    "siteId": 3277839661,
    "siteName": "Paradise Park 1-22",
    "status": "Taking orders",
    "statusId": 0,
    "underConstruction": false
  },
  {
    "city": "LONDON",
    "greaterCityLocator": "E3",
    "latitude": "51.535498",
    "longitude": "-0.033654",
    "postCodes": null,
    "salesRepEmail": "dan.fuller@hyperoptic.com",
    "salesRepId": 65221,
    "salesRepName": "Dan Fuller",
    "salesRepPhone": "+44 7825 755 220",
    "siteId": 3277839729,
    "siteName": "Albany and Connaught Works Bow",
    "status": "Taking orders",
    "statusId": 0,
    "underConstruction": false
  },
  {
    "city": "LONDON",
    "greaterCityLocator": "N7",
    "latitude": "51.549296",
    "longitude": "-0.11774",
    "postCodes": null,
    "salesRepEmail": "sam.smith@hyperoptic.com",
    "salesRepId": 177307,
    "salesRepName": "Sam Smith",
    "salesRepPhone": "+44 7931 336 669",
    "siteId": 3277839983,
    "siteName": "Nicholas Court",
    "status": "Taking orders",
    "statusId": 0,
    "underConstruction": false
  },
  {
    "city": "LONDON",
    "greaterCityLocator": "N1",
    "latitude": "51.539722",
    "longitude": "-0.077412",
    "postCodes": null,
    "salesRepEmail": "dan.fuller@hyperoptic.com",
    "salesRepId": 65221,
    "salesRepName": "Dan Fuller",
    "salesRepPhone": "+44 7825 755 220",
    "siteId": 3277840045,
    "siteName": "2N1",
    "status": "Taking orders",
    "statusId": 0,
    "underConstruction": false
  },
  {
    "city": "LONDON",
    "greaterCityLocator": "EC2A",
    "latitude": "51.525529",
    "longitude": "-0.079466",
    "postCodes": null,
    "salesRepEmail": "dan.fuller@hyperoptic.com",
    "salesRepId": 65221,
    "salesRepName": "Dan Fuller",
    "salesRepPhone": "+44 7825 755 220",
    "siteId": 3277840047,
    "siteName": "Batemans Row",
    "status": "Taking orders",
    "statusId": 0,
    "underConstruction": false
  },
  {
    "city": "LONDON",
    "greaterCityLocator": "N1",
    "latitude": "51.529076",
    "longitude": "-0.0885",
    "postCodes": null,
    "salesRepEmail": "jeremy.domantay@hyperoptic.com",
    "salesRepId": 68249,
    "salesRepName": "Jeremy Domantay",
    "salesRepPhone": "+44 7931 542 348",
    "siteId": 3277840095,
    "siteName": "Britannia Walk",
    "status": "Taking orders",
    "statusId": 0,
    "underConstruction": false
  },
  {
    "city": "LONDON",
    "greaterCityLocator": "E15",
    "latitude": "51.534484",
    "longitude": "0.011318",
    "postCodes": null,
    "salesRepEmail": "steven.calder@hyperoptic.com",
    "salesRepId": 126984,
    "salesRepName": "Steven Calder",
    "salesRepPhone": "+44 7740 345 707",
    "siteId": 3277840305,
    "siteName": "Plaistowe Road",
    "status": "Going live",
    "statusId": 3,
    "underConstruction": false
  },
  {
    "city": "LONDON",
    "greaterCityLocator": "N1",
    "latitude": "51.530224",
    "longitude": "-0.086116",
    "postCodes": null,
    "salesRepEmail": "mike.penn@hyperoptic.com",
    "salesRepId": 87806,
    "salesRepName": "Mike Penn",
    "salesRepPhone": null,
    "siteId": 3277840335,
    "siteName": "Spectrum Building",
    "status": "Taking orders",
    "statusId": 0,
    "underConstruction": false
  },
  {
    "city": "LONDON",
    "greaterCityLocator": "N7",
    "latitude": "51.553557",
    "longitude": "-0.108116",
    "postCodes": null,
    "salesRepEmail": "adam.anderson@hyperoptic.com",
    "salesRepId": 97701,
    "salesRepName": "Adam Anderson",
    "salesRepPhone": "+44 7734 680 938",
    "siteId": 3277840449,
    "siteName": "Queensland Road",
    "status": "Taking orders",
    "statusId": 0,
    "underConstruction": false
  },
  {
    "city": "LONDON",
    "greaterCityLocator": "E15",
    "latitude": "51.53014",
    "longitude": "0.001856",
    "postCodes": null,
    "salesRepEmail": "ben.squire@hyperoptic.com",
    "salesRepId": 68216,
    "salesRepName": "Ben Squire",
    "salesRepPhone": "+44 7725 247 974",
    "siteId": 3277840812,
    "siteName": "Channelsea House",
    "status": "Taking orders",
    "statusId": 0,
    "underConstruction": true
  },
  {
    "city": "LONDON",
    "greaterCityLocator": "EC2M",
    "latitude": "51.516841",
    "longitude": "-0.078851",
    "postCodes": null,
    "salesRepEmail": "mike.penn@hyperoptic.com",
    "salesRepId": 87806,
    "salesRepName": "Mike Penn",
    "salesRepPhone": null,
    "siteId": 3277840880,
    "siteName": "9,Devonshire Square",
    "status": "Taking orders",
    "statusId": 0,
    "underConstruction": false
  },
  {
    "city": "LONDON",
    "greaterCityLocator": "N4",
    "latitude": "51.575074",
    "longitude": "-0.090237",
    "postCodes": null,
    "salesRepEmail": "mike.penn@hyperoptic.com",
    "salesRepId": 87806,
    "salesRepName": "Mike Penn",
    "salesRepPhone": null,
    "siteId": 3277841258,
    "siteName": "105,Eade Road",
    "status": "Taking orders",
    "statusId": 0,
    "underConstruction": false
  },
  {
    "city": "LONDON",
    "greaterCityLocator": "EC1R",
    "latitude": "51.523268",
    "longitude": "-0.10966",
    "postCodes": null,
    "salesRepEmail": "jeremy.domantay@hyperoptic.com",
    "salesRepId": 68249,
    "salesRepName": "Jeremy Domantay",
    "salesRepPhone": "+44 7931 542 348",
    "siteId": 3277842077,
    "siteName": "Warner Street",
    "status": "Taking orders",
    "statusId": 0,
    "underConstruction": false
  },